{"schools": [{"school_id": "50102330", "school_name": "SD NEGERI 3 SELAT", "demand": 103, "latitude": -8.4824073, "longitude": 115.4015066, "lunch_time": 570, "cluster": 20, "service_time": 46.2}, {"school_id": "50102350", "school_name": "SMP NEGERI 4 BANJARANGKAN", "demand": 115, "latitude": -8.477246, "longitude": 115.3866823, "lunch_time": 720, "cluster": 20, "service_time": 51.0}, {"school_id": "50102370", "school_name": "SD NEGERI NYANGLAN", "demand": 67, "latitude": -8.461766299999999, "longitude": 115.3961223, "lunch_time": 570, "cluster": 20, "service_time": 31.8}, {"school_id": "50102377", "school_name": "SD NEGERI TOHPATI", "demand": 86, "latitude": -8.4650331, "longitude": 115.381849, "lunch_time": 570, "cluster": 20, "service_time": 39.4}, {"school_id": "50102388", "school_name": "SD NEGERI 1 TIMUHUN", "demand": 63, "latitude": -8.477653, "longitude": 115.3864023, "lunch_time": 570, "cluster": 20, "service_time": 30.2}, {"school_id": "50102450", "school_name": "SD NEGERI 2 TIMUHUN", "demand": 92, "latitude": -8.48227, "longitude": 115.38353, "lunch_time": 570, "cluster": 20, "service_time": 41.8}, {"school_id": "50102511", "school_name": "SD NEGERI 5 JEHEM", "demand": 122, "latitude": -8.447876299999999, "longitude": 115.3763372, "lunch_time": 570, "cluster": 20, "service_time": 53.8}, {"school_id": "50102523", "school_name": "SD NEGERI 6 PENINJOAN", "demand": 63, "latitude": -8.4335144, "longitude": 115.3992862, "lunch_time": 570, "cluster": 20, "service_time": 30.2}, {"school_id": "50102530", "school_name": "SMP NEGERI 1 TEMBUKU", "demand": 512, "latitude": -8.4530315, "longitude": 115.3848204, "lunch_time": 720, "cluster": 20, "service_time": 209.8}, {"school_id": "50102576", "school_name": "SMA NEGERI 1 TEMBUKU", "demand": 857, "latitude": -8.443712999999999, "longitude": 115.3952124, "lunch_time": 720, "cluster": 20, "service_time": 347.8}, {"school_id": "50102582", "school_name": "SD NEGERI 2 BANGBANG", "demand": 76, "latitude": -8.442742899999999, "longitude": 115.4055011, "lunch_time": 570, "cluster": 20, "service_time": 35.4}, {"school_id": "50102586", "school_name": "SD NEGERI 1 UNDISAN", "demand": 152, "latitude": -8.447233899999999, "longitude": 115.3948119, "lunch_time": 570, "cluster": 20, "service_time": 65.8}, {"school_id": "50102589", "school_name": "SD NEGERI 1 TEMBUKU", "demand": 118, "latitude": -8.443442, "longitude": 115.4076666, "lunch_time": 570, "cluster": 20, "service_time": 52.2}, {"school_id": "50102612", "school_name": "SD NEGERI 1 BANGBANG", "demand": 98, "latitude": -8.4466362, "longitude": 115.4038559, "lunch_time": 570, "cluster": 20, "service_time": 44.2}, {"school_id": "50102629", "school_name": "SD NEGERI 1 JEHEM", "demand": 103, "latitude": -8.4418353, "longitude": 115.3761612, "lunch_time": 570, "cluster": 20, "service_time": 46.2}, {"school_id": "50102631", "school_name": "SD NEGERI 4 TEMBUKU", "demand": 62, "latitude": -8.4456574, "longitude": 115.3850406, "lunch_time": 570, "cluster": 20, "service_time": 29.8}, {"school_id": "50102633", "school_name": "SD NEGERI 2 UNDISAN", "demand": 80, "latitude": -8.4398055, "longitude": 115.3957478, "lunch_time": 570, "cluster": 20, "service_time": 37.0}, {"school_id": "50102643", "school_name": "SD NEGERI 4 BANGBANG", "demand": 53, "latitude": -8.4595086, "longitude": 115.3972352, "lunch_time": 570, "cluster": 20, "service_time": 26.2}, {"school_id": "50102681", "school_name": "SD NEGERI 3 BANGBANG", "demand": 91, "latitude": -8.4384753, "longitude": 115.4096761, "lunch_time": 570, "cluster": 20, "service_time": 41.4}, {"school_id": "50103757", "school_name": "SD NEGERI 1 NONGAN", "demand": 54, "latitude": -8.4539939, "longitude": 115.4091507, "lunch_time": 570, "cluster": 20, "service_time": 26.6}, {"school_id": "50103762", "school_name": "SD NEGERI 1 PESABAN", "demand": 104, "latitude": -8.4684773, "longitude": 115.403178, "lunch_time": 570, "cluster": 20, "service_time": 46.6}, {"school_id": "50103763", "school_name": "SD NEGERI 2 NONGAN", "demand": 86, "latitude": -8.4397866, "longitude": 115.4144054, "lunch_time": 570, "cluster": 20, "service_time": 39.4}, {"school_id": "50103764", "school_name": "SD NEGERI 2 PESABAN", "demand": 68, "latitude": -8.471246899999999, "longitude": 115.4030137, "lunch_time": 570, "cluster": 20, "service_time": 32.2}, {"school_id": "50103767", "school_name": "SD NEGERI 4 NONGAN", "demand": 93, "latitude": -8.4495826, "longitude": 115.4105616, "lunch_time": 570, "cluster": 20, "service_time": 42.2}, {"school_id": "50103770", "school_name": "SD NEGERI 5 NONGAN", "demand": 71, "latitude": -8.454693400000002, "longitude": 115.417403, "lunch_time": 570, "cluster": 20, "service_time": 33.4}, {"school_id": "50105066", "school_name": "TK NEGERI YANGAPI", "demand": 27, "latitude": -8.4335122, "longitude": 115.3911195, "lunch_time": 480, "cluster": 20, "service_time": 15.8}, {"school_id": "50105524", "school_name": "SMKN 1 TEMBUKU", "demand": 960, "latitude": -8.443442, "longitude": 115.4076666, "lunch_time": 720, "cluster": 20, "service_time": 389.0}, {"school_id": "69814416", "school_name": "TK NEGERI DESA NYANGLAN", "demand": 27, "latitude": -8.4619772, "longitude": 115.3959937, "lunch_time": 480, "cluster": 20, "service_time": 15.8}, {"school_id": "69814443", "school_name": "TK NEGERI DESA TIMUHUN", "demand": 35, "latitude": -8.4801541, "longitude": 115.3844008, "lunch_time": 480, "cluster": 20, "service_time": 19.0}, {"school_id": "69814464", "school_name": "TK NEGERI DESA TOHPATI", "demand": 26, "latitude": -8.4649849, "longitude": 115.3814519, "lunch_time": 480, "cluster": 20, "service_time": 15.4}], "kitchens": [{"kitchen_name": "SPPG Bangli Susut Demulih", "latitude": -8.4484028, "longitude": 115.3956225, "type": "sppg", "kitchen_id": "150fd4da-593d-4894-aed1-dc25ea2ee67f", "capacity": 2000, "fixed_cost": 6000000, "maximum_vehicles": 2}, {"kitchen_name": "Jajanan LakLak Manohara", "latitude": -8.4472478, "longitude": 115.4118797, "type": "buffet_restaurant", "kitchen_id": "19f3175d-9180-47e9-84a1-dbc5d14af574", "capacity": 2000, "fixed_cost": 6000000, "maximum_vehicles": 2}, {"kitchen_name": "SPPG Bangli Bangli Cempaga", "latitude": -8.444477, "longitude": 115.3710535, "type": "sppg", "kitchen_id": "c7b81b17-330b-42e6-a367-37da35968d51", "capacity": 2000, "fixed_cost": 6000000, "maximum_vehicles": 2}, {"kitchen_name": "SPPG Karangasem Rendang Nongan", "latitude": -8.4349028, "longitude": 115.4157331, "type": "sppg", "kitchen_id": "fab239b1-aeca-4584-84dd-0c29f9db1fe5", "capacity": 2000, "fixed_cost": 6000000, "maximum_vehicles": 2}, {"kitchen_name": "SPPG Bangli Tembuku Tembuku 1", "latitude": -8.4280273, "longitude": 115.3856129, "type": "sppg", "kitchen_id": "e50670f6-3f9c-44b1-9fc6-845fd1404896", "capacity": 2000, "fixed_cost": 6000000, "maximum_vehicles": 2}, {"kitchen_name": "DE DAPOER", "latitude": -8.478743999999999, "longitude": 115.3710558, "type": "catering_service", "kitchen_id": "5b1ec63a-ab65-4cbf-8b21-ca5a4ce9f749", "capacity": 2000, "fixed_cost": 6000000, "maximum_vehicles": 2}, {"kitchen_name": "Catering Cempaka Putih", "latitude": -8.492277399999999, "longitude": 115.402533, "type": "buffet_restaurant", "kitchen_id": "793e38d6-951c-46c5-b02c-d37cfe775f84", "capacity": 2000, "fixed_cost": 6000000, "maximum_vehicles": 2}, {"kitchen_name": "WR.ASTUNGKARA", "latitude": -8.493199299999999, "longitude": 115.4053159, "type": "catering_service", "kitchen_id": "36898022-f701-4073-8bd5-ee3abd34a596", "capacity": 2000, "fixed_cost": 6000000, "maximum_vehicles": 2}, {"kitchen_name": "SPB Catering", "latitude": -8.443776999999999, "longitude": 115.3560936, "type": "catering_service", "kitchen_id": "f86679ab-99cb-4f00-9c2f-5f18f57c4f63", "capacity": 2000, "fixed_cost": 6000000, "maximum_vehicles": 2}, {"kitchen_name": "SPPG Bangli Bangli Kawan 2", "latitude": -8.456176700402485, "longitude": 115.35312178911656, "type": "sppg", "kitchen_id": "7b3ccbbe-2353-4158-b5d6-6647f04d9b23", "capacity": 2000, "fixed_cost": 6000000, "maximum_vehicles": 2}], "suppliers": [{"supplier_name": "Pasar Tembuku", "latitude": -8.451931300000002, "longitude": 115.38492359999998, "type": "market", "supplier_id": "83065683-2d99-4bae-a9b5-780f904897d1", "ingredient": "vegetables"}, {"supplier_name": "Ayam Panggang Pan Kobar", "latitude": -8.460508299999999, "longitude": 115.4067324, "type": "butcher", "supplier_id": "cfe3ed39-aa5b-4762-a426-285c186decdd", "ingredient": "meat"}, {"supplier_name": "paek kandang pak lampu", "latitude": -8.441332, "longitude": 115.398321, "type": "butcher", "supplier_id": "c96d293f-06bb-49a7-ac2d-4eebb88ce4eb", "ingredient": "meat"}, {"supplier_name": "Warung Bu Agung Made", "latitude": -8.4496422, "longitude": 115.3756798, "type": "market", "supplier_id": "bfe5ff1a-fef7-4db5-83bd-287592d6a155", "ingredient": "vegetables"}, {"supplier_name": "Kandang ayam aduan SDF Bangli", "latitude": -8.4467822, "longitude": 115.3738632, "type": "market", "supplier_id": "ffd667ac-c8cf-4bca-8cbc-c660cc3f1aa6", "ingredient": "vegetables"}, {"supplier_name": "warung spanduk pink", "latitude": -8.445027999999999, "longitude": 115.36900969999998, "type": "market", "supplier_id": "5be43659-7eab-4980-a30e-46d164056938", "ingredient": "vegetables"}, {"supplier_name": "Jual susu kedelai gusgnz", "latitude": -8.4399718, "longitude": 115.36968439999998, "type": "market", "supplier_id": "2b38d8b5-e0cf-407a-ba86-4de1b3107a1c", "ingredient": "vegetables"}, {"supplier_name": "Selip Daging Kaler", "latitude": -8.431788899999999, "longitude": 115.4171577, "type": "butcher", "supplier_id": "3fe906ec-3928-4048-bd6d-479696ca6da6", "ingredient": "meat"}, {"supplier_name": "Yadnya sari (ayam panggang)", "latitude": -8.4206568, "longitude": 115.398051, "type": "butcher", "supplier_id": "a9cab419-854c-455b-9255-99c275ad979a", "ingredient": "meat"}, {"supplier_name": "UD.Tampuagan Jaya", "latitude": -8.419349799999999, "longitude": 115.39807179999998, "type": "butcher", "supplier_id": "c52b703a-e89b-4625-897d-a614e543e0f7", "ingredient": "meat"}], "first_echelon_matrix": [[0.0, 8.2, 4.1, 4.6, 4.9, 6.2, 7.1, 10.9, 8.5, 8.7, 3.5, 8.2, 6.6, 10.4, 4.0, 5.5, 15.6, 16.3, 8.3, 10.7], [8.2, 0.0, 6.1, 12.8, 13.1, 14.4, 15.3, 5.1, 10.5, 10.7, 5.3, 2.4, 14.8, 4.5, 11.5, 11.2, 7.4, 8.1, 16.5, 18.9], [4.1, 6.1, 0.0, 8.7, 8.9, 10.3, 11.1, 8.8, 4.4, 4.6, 1.4, 6.1, 10.6, 8.2, 7.3, 11.9, 13.5, 14.1, 12.4, 14.7], [4.6, 12.8, 8.7, 0.0, 1.3, 2.7, 3.5, 15.6, 13.1, 13.3, 8.2, 12.9, 3.0, 15.0, 7.7, 10.1, 20.3, 20.9, 4.8, 7.1], [4.9, 13.1, 8.9, 1.3, 0.0, 1.4, 2.2, 15.8, 13.4, 13.6, 8.4, 13.1, 1.7, 15.2, 7.9, 10.3, 20.5, 21.1, 3.5, 5.8], [6.2, 14.4, 10.3, 2.7, 1.4, 0.0, 0.8, 17.2, 14.7, 14.9, 9.8, 14.5, 0.8, 16.6, 9.3, 11.7, 21.9, 22.5, 2.4, 4.8], [7.1, 15.3, 11.1, 3.5, 2.2, 0.8, 0.0, 18.0, 15.6, 15.8, 10.6, 15.3, 0.8, 17.4, 10.1, 12.5, 22.7, 23.3, 3.2, 5.6], [10.9, 5.1, 8.8, 15.6, 15.8, 17.2, 18.0, 0.0, 13.2, 13.4, 8.0, 2.7, 17.5, 0.6, 14.2, 15.4, 12.5, 13.1, 19.3, 21.6], [8.5, 10.5, 4.4, 13.1, 13.4, 14.7, 15.6, 13.2, 0.0, 0.3, 5.8, 10.5, 15.1, 12.6, 8.7, 16.3, 17.9, 18.6, 16.8, 19.2], [8.7, 10.7, 4.6, 13.3, 13.6, 14.9, 15.8, 13.4, 0.3, 0.0, 6.0, 10.7, 15.3, 12.8, 8.5, 16.5, 18.1, 18.8, 17.0, 19.4], [3.5, 5.3, 1.4, 8.2, 8.4, 9.8, 10.6, 8.0, 5.8, 6.0, 0.0, 5.3, 10.1, 7.4, 6.8, 11.1, 12.7, 13.3, 11.8, 14.2], [8.2, 2.4, 6.1, 12.9, 13.1, 14.5, 15.3, 2.7, 10.5, 10.7, 5.3, 0.0, 14.8, 2.2, 11.5, 12.7, 9.8, 10.4, 16.5, 18.9], [6.6, 14.8, 10.6, 3.0, 1.7, 0.8, 0.8, 17.5, 15.1, 15.3, 10.1, 14.8, 0.0, 16.9, 9.6, 12.1, 22.2, 22.9, 2.9, 5.3], [10.4, 4.5, 8.2, 15.0, 15.2, 16.6, 17.4, 0.6, 12.6, 12.8, 7.4, 2.2, 16.9, 0.0, 13.6, 14.9, 11.9, 12.6, 18.7, 21.0], [4.0, 11.5, 7.3, 7.7, 7.9, 9.3, 10.1, 14.2, 9.3, 9.0, 6.8, 11.5, 9.6, 13.6, 0.0, 9.5, 18.9, 19.5, 11.4, 13.7], [5.5, 11.2, 12.3, 10.1, 10.3, 11.7, 12.5, 15.4, 16.7, 16.9, 11.5, 12.7, 12.1, 14.9, 9.5, 0.0, 10.6, 10.8, 13.8, 16.2], [15.6, 7.4, 13.5, 20.3, 20.5, 21.9, 22.7, 12.5, 17.9, 18.1, 12.7, 9.8, 22.2, 11.9, 18.9, 10.6, 0.0, 0.6, 24.0, 26.3], [16.3, 8.1, 14.1, 20.9, 21.1, 22.5, 23.3, 13.1, 18.6, 18.8, 13.3, 10.4, 22.9, 12.6, 19.5, 10.8, 0.6, 0.0, 24.6, 26.9], [8.3, 16.5, 12.4, 4.8, 3.5, 2.4, 3.2, 19.3, 16.8, 17.0, 11.8, 16.5, 2.9, 18.7, 11.4, 13.8, 24.0, 24.6, 0.0, 2.6], [10.6, 18.8, 14.7, 7.1, 5.8, 4.7, 5.5, 21.6, 19.1, 19.3, 14.1, 18.8, 5.2, 21.0, 13.7, 16.1, 26.3, 26.9, 2.6, 0.0]], "second_echelon_matrix": [[0.0, 5.3, 10.1, 7.4, 6.8, 11.1, 12.7, 13.3, 11.8, 14.2, 11.4, 7.5, 4.5, 5.8, 7.6, 8.6, 7.9, 3.7, 3.7, 0.9, 2.7, 0.4, 3.1, 2.0, 8.4, 3.8, 1.7, 4.1, 4.0, 4.1, 6.7, 6.6, 7.3, 4.8, 7.3, 3.8, 3.1, 4.5, 8.2, 6.0], [5.3, 0.0, 14.8, 2.2, 11.5, 12.7, 9.8, 10.4, 16.5, 18.9, 8.5, 9.1, 6.1, 10.5, 9.2, 10.3, 12.6, 8.4, 8.4, 5.6, 3.9, 5.2, 4.0, 3.3, 13.1, 8.5, 6.4, 5.7, 5.3, 1.2, 3.8, 1.3, 4.4, 0.4, 4.4, 8.5, 4.0, 6.2, 9.8, 10.7], [10.1, 14.8, 0.0, 16.9, 9.6, 12.1, 22.2, 22.9, 2.9, 5.3, 20.9, 17.0, 14.0, 8.8, 17.1, 18.2, 2.7, 13.0, 6.8, 10.2, 12.2, 9.8, 12.6, 11.6, 3.2, 7.6, 11.0, 13.6, 13.6, 13.6, 16.2, 16.1, 16.9, 14.4, 16.9, 10.9, 12.6, 14.0, 17.7, 9.0], [7.4, 2.2, 16.9, 0.0, 13.6, 14.9, 11.9, 12.6, 18.7, 21.0, 10.7, 11.3, 8.3, 12.7, 11.4, 12.4, 14.7, 10.5, 10.6, 7.8, 6.1, 7.4, 6.1, 5.5, 15.2, 10.7, 8.5, 7.9, 7.5, 3.4, 6.0, 0.8, 6.6, 2.6, 6.6, 10.6, 6.1, 8.3, 12.0, 12.8], [6.8, 11.5, 9.6, 13.6, 0.0, 9.5, 18.9, 19.5, 11.4, 13.7, 17.6, 13.7, 10.7, 6.3, 13.8, 14.8, 7.4, 9.7, 4.2, 6.9, 8.9, 6.5, 9.3, 8.2, 7.9, 3.0, 7.6, 10.2, 10.2, 10.3, 12.9, 12.8, 13.5, 11.0, 13.5, 7.6, 9.3, 10.7, 14.4, 6.4], [11.5, 12.7, 12.1, 14.9, 9.5, 0.0, 10.6, 10.8, 13.8, 16.2, 12.4, 3.6, 6.6, 3.3, 3.5, 3.2, 9.8, 14.6, 5.3, 11.8, 10.1, 11.4, 10.6, 9.4, 10.4, 6.6, 12.6, 7.0, 11.5, 11.6, 9.7, 14.0, 9.9, 12.3, 14.8, 9.9, 10.6, 6.6, 3.0, 4.8], [12.7, 9.8, 22.2, 11.9, 18.9, 10.6, 0.0, 0.6, 24.0, 26.3, 1.8, 8.6, 13.5, 17.9, 8.5, 7.8, 20.0, 15.8, 15.8, 13.0, 11.4, 12.7, 11.4, 10.7, 20.5, 15.9, 13.8, 13.1, 12.7, 8.6, 6.0, 11.1, 6.2, 9.4, 10.6, 15.9, 11.4, 13.6, 7.9, 18.1], [13.3, 10.4, 22.9, 12.6, 19.5, 10.8, 0.6, 0.0, 24.6, 26.9, 2.4, 8.7, 14.2, 12.0, 8.7, 8.0, 20.6, 16.5, 16.5, 13.7, 12.0, 13.3, 12.0, 11.4, 21.1, 16.6, 14.4, 13.8, 13.4, 9.2, 6.6, 11.7, 6.8, 10.0, 11.3, 16.5, 12.0, 14.2, 8.0, 12.1], [11.8, 16.5, 2.9, 18.7, 11.4, 13.8, 24.0, 24.6, 0.0, 2.6, 22.7, 18.7, 15.7, 10.6, 18.8, 19.9, 4.5, 14.7, 8.5, 12.0, 13.9, 11.6, 14.4, 13.3, 5.0, 9.4, 12.7, 15.3, 15.3, 15.4, 18.0, 17.9, 18.6, 16.1, 18.6, 12.7, 14.4, 15.8, 19.4, 10.7], [14.1, 18.8, 5.2, 21.0, 13.7, 16.1, 26.3, 26.9, 2.6, 0.0, 25.0, 21.0, 18.0, 12.9, 21.1, 22.2, 6.8, 17.0, 10.8, 14.2, 16.2, 13.9, 16.7, 15.6, 7.3, 11.7, 15.0, 17.6, 17.6, 17.7, 20.3, 20.1, 20.9, 18.4, 20.9, 15.0, 16.7, 18.1, 21.7, 13.0], [11.4, 8.5, 20.9, 10.7, 17.6, 12.4, 1.8, 2.4, 22.7, 25.0, 0.0, 10.3, 12.3, 16.7, 10.3, 9.6, 18.7, 14.5, 14.6, 11.8, 10.1, 11.4, 10.1, 9.4, 19.2, 14.7, 12.5, 11.8, 11.4, 7.3, 4.7, 9.8, 4.9, 8.1, 9.4, 14.6, 10.1, 12.3, 9.6, 16.8], [7.9, 9.1, 17.4, 11.3, 14.1, 3.6, 8.6, 8.7, 19.1, 21.5, 10.3, 0.0, 3.0, 4.8, 0.1, 1.2, 15.1, 11.0, 11.0, 8.2, 6.5, 7.8, 7.0, 5.8, 15.7, 11.1, 9.0, 3.4, 7.9, 8.0, 10.6, 10.4, 7.9, 8.7, 11.2, 11.1, 7.0, 3.0, 0.7, 4.9], [4.9, 6.1, 14.4, 8.3, 11.0, 6.6, 13.5, 14.2, 16.1, 18.5, 12.3, 3.0, 0.0, 7.8, 3.1, 4.2, 12.1, 8.0, 8.0, 5.2, 3.5, 4.8, 3.9, 2.8, 12.7, 8.1, 6.0, 0.4, 4.9, 5.0, 7.6, 7.4, 8.2, 5.7, 8.2, 8.1, 3.9, 0.0, 3.7, 7.9], [5.8, 10.5, 8.8, 12.7, 6.3, 3.3, 17.9, 12.0, 10.6, 12.9, 16.7, 4.8, 7.8, 0.0, 4.7, 4.4, 6.6, 8.7, 2.1, 5.9, 7.9, 5.5, 8.3, 7.3, 7.1, 3.3, 6.7, 8.2, 9.3, 9.4, 12.0, 11.8, 12.6, 10.1, 12.6, 6.7, 8.3, 7.7, 4.2, 0.1], [8.0, 9.2, 17.5, 11.4, 14.1, 3.5, 8.5, 8.6, 19.2, 21.6, 10.3, 0.1, 3.1, 4.7, 0.0, 1.1, 15.2, 11.1, 11.1, 8.3, 6.6, 7.9, 7.0, 5.9, 15.8, 11.2, 9.1, 3.5, 8.0, 8.0, 7.6, 10.5, 7.8, 8.8, 11.3, 11.1, 7.0, 3.1, 0.6, 4.8], [9.0, 10.3, 18.5, 12.4, 15.2, 3.2, 7.8, 8.0, 20.3, 22.6, 9.6, 1.2, 4.2, 4.4, 1.1, 0.0, 16.3, 12.1, 6.4, 9.4, 7.7, 9.0, 8.1, 7.0, 16.8, 12.3, 10.1, 4.6, 9.0, 9.1, 6.9, 11.6, 7.1, 9.8, 11.5, 12.2, 8.1, 4.1, 0.4, 4.5], [7.9, 12.6, 2.7, 14.7, 7.4, 9.8, 20.0, 20.6, 4.5, 6.8, 18.7, 14.8, 11.7, 6.6, 14.8, 15.9, 0.0, 10.7, 4.5, 8.0, 10.0, 7.6, 10.4, 9.3, 1.0, 5.4, 8.7, 11.3, 11.3, 11.4, 14.0, 13.9, 14.6, 12.1, 14.6, 8.7, 10.4, 11.8, 15.5, 6.7], [3.7, 8.4, 13.0, 10.5, 9.7, 14.2, 15.8, 16.5, 14.7, 17.1, 14.5, 10.6, 7.6, 8.7, 10.7, 11.8, 10.7, 0.0, 6.6, 3.1, 5.8, 3.4, 6.2, 5.2, 11.3, 6.7, 2.0, 7.2, 7.2, 7.2, 9.8, 9.7, 10.5, 8.0, 10.5, 6.7, 6.2, 7.6, 11.3, 8.8], [3.7, 8.4, 6.8, 10.6, 4.2, 5.3, 15.8, 16.5, 8.5, 10.8, 14.6, 10.6, 7.6, 2.1, 10.7, 6.4, 4.5, 6.6, 0.0, 3.8, 5.8, 3.4, 6.3, 5.2, 5.0, 1.2, 4.6, 7.2, 7.2, 7.3, 9.9, 9.7, 10.5, 8.0, 10.5, 4.6, 6.3, 7.7, 6.2, 2.2], [0.9, 5.6, 10.2, 7.8, 6.9, 11.4, 13.0, 13.7, 12.0, 14.3, 11.8, 7.8, 4.8, 5.9, 7.9, 9.0, 8.0, 3.1, 3.8, 0.0, 3.0, 0.6, 3.5, 2.4, 8.5, 3.9, 1.1, 4.4, 4.4, 4.5, 7.1, 6.9, 7.7, 5.2, 7.7, 3.9, 3.5, 4.9, 8.5, 6.1], [2.7, 3.9, 12.2, 6.1, 8.9, 10.1, 11.4, 12.0, 13.9, 16.3, 10.1, 6.5, 3.5, 7.9, 6.6, 7.7, 10.0, 5.8, 5.8, 3.0, 0.0, 2.6, 0.4, 0.7, 10.5, 5.9, 3.8, 3.1, 1.4, 2.8, 5.4, 5.2, 6.0, 3.5, 6.0, 5.9, 0.4, 3.6, 7.2, 8.1], [0.4, 5.2, 9.8, 7.4, 6.5, 11.0, 12.7, 13.3, 11.6, 13.9, 11.4, 7.4, 4.4, 5.5, 7.5, 8.6, 7.6, 3.4, 3.4, 0.6, 2.6, 0.0, 3.1, 2.0, 8.1, 3.5, 1.4, 4.0, 4.0, 4.1, 6.7, 6.5, 7.3, 4.8, 7.3, 3.5, 3.1, 4.5, 8.1, 5.7], [3.1, 4.0, 12.6, 6.1, 9.3, 10.6, 11.4, 12.0, 14.4, 16.7, 10.1, 7.0, 3.9, 8.3, 7.0, 8.1, 10.4, 6.2, 6.3, 3.5, 0.4, 3.1, 0.0, 1.1, 10.9, 6.3, 4.2, 3.5, 1.7, 2.8, 5.4, 5.3, 6.0, 3.5, 6.0, 6.3, 0.0, 4.0, 7.7, 8.5], [2.0, 3.3, 11.6, 5.5, 8.2, 9.4, 10.7, 11.4, 13.3, 15.7, 9.4, 5.8, 2.8, 7.3, 5.9, 7.0, 9.3, 5.2, 5.2, 2.4, 0.7, 2.0, 1.1, 0.0, 9.8, 5.3, 3.1, 2.4, 2.1, 2.1, 4.7, 4.6, 5.4, 2.9, 5.4, 5.2, 1.1, 2.9, 6.5, 7.4], [8.4, 13.1, 3.2, 15.2, 7.9, 10.4, 20.5, 21.1, 5.0, 7.3, 19.2, 15.3, 12.3, 7.1, 15.4, 16.5, 1.0, 11.3, 5.0, 8.5, 10.5, 8.1, 10.9, 9.8, 0.0, 5.9, 9.3, 11.9, 11.8, 11.9, 14.5, 14.4, 15.2, 12.6, 15.1, 9.2, 10.9, 12.3, 16.0, 7.3], [3.8, 8.5, 7.6, 10.7, 3.0, 6.6, 15.9, 16.6, 9.4, 11.7, 14.7, 10.7, 7.7, 3.3, 10.8, 11.9, 5.4, 6.7, 1.2, 3.9, 5.9, 3.5, 6.3, 5.3, 5.9, 0.0, 4.7, 7.3, 7.3, 7.3, 10.0, 9.8, 10.6, 8.1, 10.6, 4.7, 6.3, 7.7, 11.4, 3.5], [1.7, 6.4, 11.0, 8.5, 7.6, 12.2, 13.8, 14.4, 12.7, 15.1, 12.5, 8.6, 5.6, 6.7, 8.7, 9.8, 8.7, 2.0, 4.6, 1.1, 3.8, 1.4, 4.2, 3.1, 9.3, 4.7, 0.0, 5.2, 5.1, 5.2, 7.8, 7.7, 8.5, 5.9, 8.4, 4.6, 4.2, 5.6, 9.3, 6.8], [4.4, 5.7, 14.0, 7.9, 10.6, 7.0, 13.1, 13.8, 15.7, 18.1, 11.8, 3.4, 0.4, 8.2, 3.5, 4.6, 11.7, 7.6, 7.6, 4.8, 3.1, 4.4, 3.5, 2.4, 12.3, 7.7, 5.6, 0.0, 4.5, 4.5, 7.1, 7.0, 7.8, 5.3, 7.8, 7.6, 3.5, 0.5, 4.1, 8.3], [4.0, 5.3, 13.6, 7.5, 10.2, 11.5, 12.7, 13.4, 15.3, 17.7, 11.4, 7.9, 4.9, 9.3, 8.0, 9.0, 11.3, 7.2, 7.2, 4.4, 1.4, 4.0, 1.7, 2.1, 11.8, 7.3, 5.1, 4.5, 0.0, 4.1, 6.7, 6.6, 7.4, 4.9, 7.4, 7.2, 1.7, 4.9, 8.6, 9.4], [4.1, 1.2, 13.6, 3.4, 10.3, 11.6, 8.6, 9.2, 15.4, 17.7, 7.3, 8.0, 5.0, 9.4, 8.0, 9.1, 11.4, 7.2, 7.3, 4.5, 2.8, 4.1, 2.8, 2.1, 11.9, 7.3, 5.2, 4.5, 4.1, 0.0, 2.6, 2.5, 3.2, 0.8, 3.2, 7.3, 2.8, 5.0, 8.7, 9.5], [6.7, 3.8, 16.2, 6.0, 12.9, 9.7, 6.0, 6.6, 18.0, 20.3, 4.7, 7.6, 7.6, 12.0, 7.6, 6.9, 14.0, 9.8, 9.9, 7.1, 5.4, 6.7, 5.4, 4.7, 14.5, 10.0, 7.8, 7.1, 6.7, 2.6, 0.0, 5.1, 0.6, 3.4, 4.7, 9.9, 5.4, 7.6, 6.9, 12.1], [6.6, 1.3, 16.1, 0.8, 12.8, 14.0, 11.1, 11.7, 17.9, 20.2, 9.8, 10.4, 7.4, 11.8, 10.5, 11.6, 13.9, 9.7, 9.7, 6.9, 5.2, 6.5, 5.3, 4.6, 14.4, 9.8, 7.7, 7.0, 6.6, 2.5, 5.1, 0.0, 5.8, 1.7, 5.7, 9.8, 5.3, 7.5, 11.1, 12.0], [7.3, 4.4, 16.9, 6.6, 13.5, 9.9, 6.2, 6.8, 18.6, 21.0, 4.9, 7.9, 8.2, 12.6, 7.8, 7.1, 14.6, 10.5, 10.5, 7.7, 6.0, 7.3, 6.0, 5.4, 15.2, 10.6, 8.5, 7.8, 7.4, 3.2, 0.6, 5.8, 0.0, 4.0, 5.3, 10.5, 6.0, 8.2, 7.1, 12.7], [4.8, 0.4, 14.4, 2.6, 11.0, 12.3, 9.4, 10.0, 16.1, 18.4, 8.1, 8.7, 5.7, 10.1, 8.8, 9.8, 12.1, 8.0, 8.0, 5.2, 3.5, 4.8, 3.5, 2.9, 12.6, 8.1, 5.9, 5.3, 4.9, 0.8, 3.4, 1.7, 4.0, 0.0, 4.0, 8.0, 3.5, 5.7, 9.4, 10.2], [7.3, 4.4, 16.9, 6.6, 13.5, 14.8, 10.6, 11.3, 18.6, 20.9, 9.4, 11.2, 8.2, 12.6, 11.3, 11.5, 14.6, 10.5, 10.5, 7.7, 6.0, 7.3, 6.0, 5.4, 15.1, 10.6, 8.4, 7.8, 7.4, 3.2, 4.7, 5.7, 5.3, 4.0, 0.0, 10.5, 6.0, 8.2, 11.9, 12.7], [3.8, 8.5, 10.9, 10.6, 7.6, 9.9, 15.9, 16.5, 12.7, 15.0, 14.6, 10.7, 7.7, 6.7, 10.8, 11.8, 8.7, 6.7, 4.6, 3.9, 5.9, 3.5, 6.3, 5.2, 9.2, 4.7, 4.6, 7.3, 7.2, 7.3, 9.9, 9.8, 10.5, 8.0, 10.5, 0.0, 6.3, 7.7, 11.4, 6.8], [3.1, 4.0, 12.6, 6.1, 9.3, 10.6, 11.4, 12.0, 14.4, 16.7, 10.1, 7.0, 3.9, 8.3, 7.0, 8.1, 10.4, 6.2, 6.3, 3.5, 0.4, 3.1, 0.0, 1.1, 10.9, 6.3, 4.2, 3.5, 1.7, 2.8, 5.4, 5.3, 6.0, 3.5, 6.0, 6.3, 0.0, 4.0, 7.7, 8.5], [4.9, 6.2, 14.4, 8.3, 11.1, 6.6, 13.6, 14.2, 16.2, 18.5, 12.3, 3.0, 0.0, 7.7, 3.1, 4.1, 12.2, 8.0, 8.0, 5.2, 3.6, 4.9, 4.0, 2.9, 12.7, 8.1, 6.0, 0.5, 4.9, 5.0, 7.6, 7.5, 8.2, 5.7, 8.2, 8.1, 4.0, 0.0, 3.7, 7.9], [8.6, 9.8, 18.1, 12.0, 14.8, 3.0, 7.9, 8.0, 19.8, 22.2, 9.6, 0.7, 3.7, 4.2, 0.6, 0.4, 15.8, 11.7, 6.2, 8.9, 7.2, 8.5, 7.7, 6.5, 16.4, 11.8, 9.7, 4.1, 8.6, 8.7, 6.9, 11.1, 7.1, 9.4, 11.9, 11.8, 7.7, 3.7, 0.0, 4.3], [6.0, 10.7, 9.0, 12.8, 6.4, 3.5, 18.1, 12.1, 10.7, 13.1, 16.8, 4.9, 7.9, 0.1, 4.8, 4.5, 6.7, 8.8, 2.2, 6.1, 8.1, 5.7, 8.5, 7.4, 7.3, 3.5, 6.8, 8.3, 9.4, 9.5, 12.1, 12.0, 12.7, 10.2, 12.7, 6.8, 8.5, 7.9, 4.3, 0.0]], "ingredients": [{"name": "meat", "ratio_tray_to_kg": 0.1}, {"name": "vegetables", "ratio_tray_to_kg": 0.2}], "E1_vehicles": [{"capacity": 800, "variable_cost": 0.7, "fixed_cost": 100000}, {"capacity": 800, "variable_cost": 0.7, "fixed_cost": 100000}, {"capacity": 800, "variable_cost": 0.7, "fixed_cost": 100000}, {"capacity": 800, "variable_cost": 0.7, "fixed_cost": 100000}, {"capacity": 800, "variable_cost": 0.7, "fixed_cost": 100000}, {"capacity": 800, "variable_cost": 0.7, "fixed_cost": 100000}, {"capacity": 800, "variable_cost": 0.7, "fixed_cost": 100000}, {"capacity": 800, "variable_cost": 0.7, "fixed_cost": 100000}, {"capacity": 800, "variable_cost": 0.7, "fixed_cost": 100000}, {"capacity": 800, "variable_cost": 0.7, "fixed_cost": 100000}], "E2_vehicles": [{"capacity": 1000, "variable_cost": 0.8, "fixed_cost": 289000}, {"capacity": 1000, "variable_cost": 0.8, "fixed_cost": 289000}, {"capacity": 1000, "variable_cost": 0.8, "fixed_cost": 289000}, {"capacity": 1000, "variable_cost": 0.8, "fixed_cost": 289000}, {"capacity": 1000, "variable_cost": 0.8, "fixed_cost": 289000}, {"capacity": 1000, "variable_cost": 0.8, "fixed_cost": 289000}, {"capacity": 1000, "variable_cost": 0.8, "fixed_cost": 289000}, {"capacity": 1000, "variable_cost": 0.8, "fixed_cost": 289000}, {"capacity": 1000, "variable_cost": 0.8, "fixed_cost": 289000}, {"capacity": 1000, "variable_cost": 0.8, "fixed_cost": 289000}, {"capacity": 1000, "variable_cost": 0.8, "fixed_cost": 289000}, {"capacity": 1000, "variable_cost": 0.8, "fixed_cost": 289000}, {"capacity": 1000, "variable_cost": 0.8, "fixed_cost": 289000}, {"capacity": 1000, "variable_cost": 0.8, "fixed_cost": 289000}, {"capacity": 1000, "variable_cost": 0.8, "fixed_cost": 289000}, {"capacity": 1000, "variable_cost": 0.8, "fixed_cost": 289000}, {"capacity": 1000, "variable_cost": 0.8, "fixed_cost": 289000}, {"capacity": 1000, "variable_cost": 0.8, "fixed_cost": 289000}, {"capacity": 1000, "variable_cost": 0.8, "fixed_cost": 289000}, {"capacity": 1000, "variable_cost": 0.8, "fixed_cost": 289000}]}