{"schools": [{"school_id": "50102694", "school_name": "SD NEGERI 4 SERAYA", "demand": 114, "latitude": -8.429838, "longitude": 115.628171, "lunch_time": 570, "cluster": 10}, {"school_id": "50102724", "school_name": "SD NEGERI 6 DUDA TIMUR", "demand": 72, "latitude": -8.429838, "longitude": 115.628171, "lunch_time": 570, "cluster": 10}, {"school_id": "50102725", "school_name": "SD NEGERI 3 AMERTA BHUANA", "demand": 68, "latitude": -8.429838, "longitude": 115.628171, "lunch_time": 570, "cluster": 10}, {"school_id": "50102730", "school_name": "SD NEGERI 3 TUMBU", "demand": 54, "latitude": -8.436060099999999, "longitude": 115.6295943, "lunch_time": 570, "cluster": 10}, {"school_id": "50102738", "school_name": "SD NEGERI 3 SERAYA", "demand": 129, "latitude": -8.4429793, "longitude": 115.6370403, "lunch_time": 570, "cluster": 10}, {"school_id": "50102739", "school_name": "SD NEGERI 3 SERAYA BARAT", "demand": 118, "latitude": -8.4429793, "longitude": 115.6370403, "lunch_time": 570, "cluster": 10}, {"school_id": "50102761", "school_name": "SD NEGERI 4 BUKIT", "demand": 49, "latitude": -8.414660099999999, "longitude": 115.6308886, "lunch_time": 570, "cluster": 10}, {"school_id": "50102835", "school_name": "SD NEGERI 8 BAN", "demand": 119, "latitude": -8.429838, "longitude": 115.628171, "lunch_time": 570, "cluster": 10}, {"school_id": "50102837", "school_name": "SD NEGERI 1 NGIS", "demand": 55, "latitude": -8.429838, "longitude": 115.628171, "lunch_time": 570, "cluster": 10}, {"school_id": "50102881", "school_name": "SD NEGERI 10 TIANYAR", "demand": 87, "latitude": -8.429838, "longitude": 115.628171, "lunch_time": 570, "cluster": 10}, {"school_id": "50102891", "school_name": "SD NEGERI 1 TULAMBEN", "demand": 386, "latitude": -8.429838, "longitude": 115.628171, "lunch_time": 570, "cluster": 10}, {"school_id": "50102900", "school_name": "SD NEGERI 2 BATURINGGIT", "demand": 167, "latitude": -8.429838, "longitude": 115.628171, "lunch_time": 570, "cluster": 10}, {"school_id": "50102941", "school_name": "SD NEGERI 1 BUKIT", "demand": 90, "latitude": -8.4218893, "longitude": 115.6316976, "lunch_time": 570, "cluster": 10}, {"school_id": "50102950", "school_name": "SD NEGERI 3 BUKIT", "demand": 44, "latitude": -8.4266101, "longitude": 115.6345554, "lunch_time": 570, "cluster": 10}, {"school_id": "50102977", "school_name": "SD NEGERI 3 LABASARI", "demand": 80, "latitude": -8.429838, "longitude": 115.628171, "lunch_time": 570, "cluster": 10}, {"school_id": "50102979", "school_name": "SD NEGERI 3 DUDA UTARA", "demand": 126, "latitude": -8.429838, "longitude": 115.628171, "lunch_time": 570, "cluster": 10}, {"school_id": "50102987", "school_name": "SD NEGERI 2 TEGALLINGGAH", "demand": 53, "latitude": -8.429746999999999, "longitude": 115.6235642, "lunch_time": 570, "cluster": 10}, {"school_id": "50102990", "school_name": "SD NEGERI 2 KARANGASEM", "demand": 47, "latitude": -8.429838, "longitude": 115.628171, "lunch_time": 570, "cluster": 10}, {"school_id": "50102991", "school_name": "SD NEGERI 2 KERTA BUANA", "demand": 110, "latitude": -8.429838, "longitude": 115.628171, "lunch_time": 570, "cluster": 10}, {"school_id": "50102994", "school_name": "SD NEGERI 2 LOKASARI", "demand": 53, "latitude": -8.429838, "longitude": 115.628171, "lunch_time": 570, "cluster": 10}, {"school_id": "50103004", "school_name": "SD NEGERI 2 BUKIT", "demand": 71, "latitude": -8.429838, "longitude": 115.628171, "lunch_time": 570, "cluster": 10}, {"school_id": "50103008", "school_name": "SD NEGERI 2 DUDA", "demand": 130, "latitude": -8.429838, "longitude": 115.628171, "lunch_time": 570, "cluster": 10}, {"school_id": "50103013", "school_name": "SD NEGERI 2 SERAYA BARAT", "demand": 132, "latitude": -8.435173899999999, "longitude": 115.6503644, "lunch_time": 570, "cluster": 10}, {"school_id": "50103016", "school_name": "SD NEGERI 2 SIDEMEN", "demand": 70, "latitude": -8.429838, "longitude": 115.628171, "lunch_time": 570, "cluster": 10}, {"school_id": "50103020", "school_name": "SD NEGERI 2 TALIBENG", "demand": 67, "latitude": -8.429838, "longitude": 115.628171, "lunch_time": 570, "cluster": 10}, {"school_id": "50103031", "school_name": "SD NEGERI 2 SANGKAN GUNUNG", "demand": 105, "latitude": -8.429838, "longitude": 115.628171, "lunch_time": 570, "cluster": 10}, {"school_id": "50103774", "school_name": "SD NEGERI 2 RENDANG", "demand": 213, "latitude": -8.429838, "longitude": 115.628171, "lunch_time": 570, "cluster": 10}, {"school_id": "50103795", "school_name": "SD NEGERI 2 MENANGA", "demand": 107, "latitude": -8.429838, "longitude": 115.628171, "lunch_time": 570, "cluster": 10}, {"school_id": "50103849", "school_name": "SD NEGERI 4 SERAYA BARAT", "demand": 54, "latitude": -8.418403, "longitude": 115.6507188, "lunch_time": 570, "cluster": 10}, {"school_id": "50105451", "school_name": "SMP NEGERI SATU ATAP SANGKAN GUNUNG", "demand": 224, "latitude": -8.429838, "longitude": 115.628171, "lunch_time": 720, "cluster": 10}], "kitchens": [{"kitchen_name": "Martabak MARBUANA 26", "latitude": -8.4337006, "longitude": 115.6141191, "type": "buffet_restaurant"}, {"kitchen_name": "Katering Warung Nasi Campur Mok Luh jape", "latitude": -8.433556099999999, "longitude": 115.600776, "type": "catering_service"}, {"kitchen_name": "SPPG Karangasem Karangasem Padangkerta", "latitude": -8.43603902894372, "longitude": 115.59592493308222, "type": "sppg"}, {"kitchen_name": "SPPG Karangasem Karangasem Padangkerta 3", "latitude": -8.4418851, "longitude": 115.5965798, "type": "sppg"}, {"kitchen_name": "Bali Wedding Catering", "latitude": -8.4398469, "longitude": 115.5959134, "type": "catering_service"}, {"kitchen_name": "SPPG Karangasem Karangasem Padangkerta 2", "latitude": -8.425523822252433, "longitude": 115.59398778315924, "type": "sppg"}, {"kitchen_name": "Warung Ayu", "latitude": -8.4533997, "longitude": 115.601856, "type": "catering_service"}, {"kitchen_name": "MARTABAK TIM TAM", "latitude": -8.456191, "longitude": 115.6018017, "type": "buffet_restaurant"}, {"kitchen_name": "SPPG Karangasem Abang Laba Sari", "latitude": -8.4660455, "longitude": 115.6108147, "type": "sppg"}, {"kitchen_name": "SPPG Karangasem Karangasem Subagan", "latitude": -8.466045670720375, "longitude": 115.61081245882858, "type": "sppg"}], "suppliers": [{"supplier_name": "Warung Lalapan MamaTik Surabaya", "latitude": -8.4337198, "longitude": 115.6142414, "type": "butcher"}, {"supplier_name": "TERUS NADI BUAH", "latitude": -8.438609099999999, "longitude": 115.6126196, "type": "market"}, {"supplier_name": "Banjar adat tumingal kelurahan tiyingtali kecamatan Abang kabupaten Karangasem Provinsi Bali", "latitude": -8.4075246, "longitude": 115.62689299999998, "type": "butcher"}, {"supplier_name": "Pasar tiyingtali", "latitude": -8.410432799999999, "longitude": 115.61651059999998, "type": "market"}, {"supplier_name": "Pasar Amlapura Timur", "latitude": -8.4486934, "longitude": 115.6154672, "type": "market"}, {"supplier_name": "Pasar Sengol Amlapura", "latitude": -8.448825099999999, "longitude": 115.6148979, "type": "market"}, {"supplier_name": "Local market - Amlapura", "latitude": -8.4491184, "longitude": 115.61510779999998, "type": "market"}, {"supplier_name": "Pasar Tenten DA Tampuagan", "latitude": -8.4457088, "longitude": 115.6115171, "type": "market"}, {"supplier_name": "Selip Bakso Indra Jaya ( Ibu Dayu Nyoman )", "latitude": -8.449119, "longitude": 115.6142143, "type": "market"}, {"supplier_name": "Tiyingtali", "latitude": -8.4090304, "longitude": 115.61402319999998, "type": "butcher"}], "first_echelon_matrix": [[0, 880.9, 4055.9, 2906.3, 1958.7, 1977.2, 1912, 2784.6, 1993.7, 3235.1, 13.6, 1770.6, 2408.3, 2818.6, 2424.1, 4576.4, 3357.5, 3775.2, 5239.1, 5238.9], [906.8, 0, 4962.8, 3813.1, 1678.1, 1696.7, 1631.4, 2504, 1713.2, 4141.9, 893.3, 2059.1, 2696.8, 3107.1, 2712.5, 4864.9, 3077, 3494.6, 4958.6, 4958.3], [4076.3, 4957.2, 0, 2091.6, 5979.6, 5998.1, 5932.9, 6805.5, 6014.6, 2420.4, 4089.9, 5547.9, 6484.6, 6894.9, 6500.4, 6222, 7378.4, 7796.1, 9260, 9259.8], [2926.7, 3807.6, 2091.6, 0, 4830, 4848.5, 4783.3, 5655.9, 4865, 328.8, 2940.2, 4398.3, 5335, 5745.3, 5350.8, 5072.4, 6228.8, 6646.5, 8110.4, 8110.2], [2203.6, 1296.8, 6259.6, 5110, 0, 486.9, 421.7, 1278.4, 503.4, 5438.8, 2190.1, 3355.9, 4102.5, 3437.6, 3518.6, 5670.9, 1851.4, 2269.1, 3733, 3732.7], [2242.6, 1335.7, 6298.5, 5148.9, 38.9, 0, 142.7, 1317.3, 83.7, 5477.7, 2229, 3394.8, 4141.4, 3476.5, 3557.5, 5709.9, 1890.3, 2308, 3771.9, 3771.6], [2250.3, 1343.5, 6306.3, 5156.6, 46.7, 65.2, 0, 1325.1, 149, 5485.4, 2236.8, 3402.6, 4149.1, 3484.3, 3565.3, 5717.6, 1898, 2315.7, 3779.6, 3779.4], [1865.3, 958.4, 5921.2, 4771.6, 1367.1, 1385.6, 1320.4, 0, 1402.1, 5100.4, 1851.7, 3017.5, 3655.2, 4352.2, 4433.2, 6585.5, 2765.9, 3183.6, 4647.5, 4647.3], [2326.3, 1419.5, 6382.2, 5232.6, 122.7, 83.7, 134.4, 1401.1, 0, 5561.4, 2312.7, 3478.5, 4225.1, 3560.3, 3641.3, 5793.6, 1974, 2391.7, 3855.6, 3855.4], [3255.5, 4136.4, 2420.4, 328.8, 5158.8, 5177.3, 5112.1, 5984.7, 5193.8, 0, 3269.1, 4727.1, 5663.8, 6074.1, 5679.6, 7615.6, 6557.6, 6975.3, 8439.2, 8439], [13.6, 867.4, 4069.5, 2919.9, 1972.2, 1990.8, 1925.5, 2798.1, 2007.3, 3248.7, 0, 1757.1, 2394.8, 2805.1, 2410.5, 4562.8, 3371.1, 3788.7, 5252.7, 5252.4], [1755.2, 2059.1, 5547.9, 4398.3, 3713.8, 3732.4, 3667.1, 4107.4, 3748.9, 4727.1, 1741.6, 0, 1807.6, 2217.9, 1823.4, 3975.7, 4107.5, 4525.2, 5989.1, 5988.8], [2392.9, 2696.8, 6448.8, 5299.2, 4081.4, 4100, 4034.7, 2968.3, 4116.5, 5628, 2379.3, 1807.6, 0, 1078.8, 684.3, 2243.5, 2968.4, 3386.1, 4850, 4849.7], [2803.2, 3261.9, 6859.1, 5709.5, 3416.6, 3435.1, 3369.9, 2303.5, 3451.6, 6038.3, 2789.6, 2217.9, 1078.8, 0, 495, 2647.3, 2303.5, 2721.2, 4185.1, 4184.9], [2408.6, 3342.9, 6464.6, 5315, 3497.6, 3516.1, 3450.9, 2384.5, 3532.6, 5643.8, 2395.1, 1823.4, 684.3, 495, 0, 2152.3, 2384.6, 2802.2, 4266.1, 4265.9], [4560.9, 5495.3, 6222, 5072.4, 5649.9, 5668.5, 5603.2, 4536.8, 5685, 7615.6, 4547.4, 3975.7, 2243.5, 2647.3, 2152.3, 0, 4536.9, 4954.6, 6418.5, 6418.2], [3310.3, 2403.5, 7366.3, 6216.7, 2558.2, 2576.7, 2511.5, 1445.1, 2593.2, 6545.5, 3296.8, 4084.3, 2945.3, 2280.4, 2361.4, 4513.7, 0, 417.7, 1881.6, 1881.3], [3750.9, 2844.1, 7806.8, 6657.2, 2998.7, 3017.3, 2952, 1885.6, 3033.8, 6986, 3737.3, 4524.9, 3385.8, 2720.9, 2802, 4954.3, 440.5, 0, 1477.8, 1477.5], [5214.8, 4308, 9270.7, 8121.1, 4462.6, 4481.2, 4415.9, 3349.5, 4497.7, 8449.9, 5201.2, 5988.8, 4849.7, 4184.9, 4265.9, 6418.2, 1904.4, 1477.8, 0, 0.2], [5214.5, 4307.7, 9270.5, 8120.9, 4462.4, 4480.9, 4415.7, 3349.3, 4497.4, 8449.7, 5201, 5988.6, 4849.5, 4184.6, 4265.6, 6418, 1904.2, 1477.5, -0.2, 0]], "second_echelon_matrix": [[0, 1757.1, 2394.8, 2805.1, 2410.5, 4562.8, 3371.1, 3788.7, 5252.7, 5252.4, 2104.9, 2104.9, 2104.9, 3105.9, 5595.7, 5595.7, 4703.9, 2104.9, 2104.9, 2104.9, 2104.9, 2104.9, 3143.6, 3111.6, 2104.9, 2104.9, 1804.1, 2104.9, 2104.9, 2104.9, 2104.9, 2104.9, 6297.1, 2104.9, 2104.9, 2104.9, 2104.9, 2104.9, 7072, 2104.9], [1741.6, 0, 1807.6, 2217.9, 1823.4, 3975.7, 4107.5, 4525.2, 5989.1, 5988.8, 3846.5, 3846.5, 3846.5, 4847.5, 10168.4, 10168.4, 6182.3, 3846.5, 3846.5, 3846.5, 3846.5, 3846.5, 4885.2, 4853.3, 3846.5, 3846.5, 3545.7, 3846.5, 3846.5, 3846.5, 3846.5, 3846.5, 8038.8, 3846.5, 3846.5, 3846.5, 3846.5, 3846.5, 8813.6, 3846.5], [2379.3, 1807.6, 0, 1078.8, 684.3, 2243.5, 2968.4, 3386.1, 4850, 4849.7, 4484.2, 4484.2, 4484.2, 5485.2, 9029.4, 9029.4, 7083.2, 4484.2, 4484.2, 4484.2, 4484.2, 4484.2, 5522.9, 5491, 4484.2, 4484.2, 4183.4, 4484.2, 4484.2, 4484.2, 4484.2, 4484.2, 11107.6, 4484.2, 4484.2, 4484.2, 4484.2, 4484.2, 9451.3, 4484.2], [2789.6, 2217.9, 1078.8, 0, 495, 2647.3, 2303.5, 2721.2, 4185.1, 4184.9, 4894.5, 4894.5, 4894.5, 5895.5, 8364.5, 8364.5, 7493.6, 4894.5, 4894.5, 4894.5, 4894.5, 4894.5, 5933.2, 5901.3, 4894.5, 4894.5, 4593.7, 4894.5, 4894.5, 4894.5, 4894.5, 4894.5, 10442.7, 4894.5, 4894.5, 4894.5, 4894.5, 4894.5, 12710, 4894.5], [2395.1, 1823.4, 684.3, 495, 0, 2152.3, 2384.6, 2802.2, 4266.1, 4265.9, 4500, 4500, 4500, 5500.9, 8445.5, 8445.5, 7099, 4500, 4500, 4500, 4500, 4500, 5538.7, 5506.7, 4500, 4500, 4199.2, 4500, 4500, 4500, 4500, 4500, 10523.7, 4500, 4500, 4500, 4500, 4500, 9467, 4500], [4547.4, 3975.7, 2243.5, 2647.3, 2152.3, 0, 4536.9, 4954.6, 6418.5, 6418.2, 6652.3, 6652.3, 6652.3, 7653.3, 10597.8, 10597.8, 6856.5, 6652.3, 6652.3, 6652.3, 6652.3, 6652.3, 7691, 7659, 6652.3, 6652.3, 6351.5, 6652.3, 6652.3, 6652.3, 6652.3, 6652.3, 12676.1, 6652.3, 6652.3, 6652.3, 6652.3, 6652.3, 11619.3, 6652.3], [3296.8, 4084.3, 2945.3, 2280.4, 2361.4, 4513.7, 0, 417.7, 1881.6, 1881.3, 4814, 4814, 4814, 6357.9, 8001.5, 8001.5, 8000.7, 4814, 4814, 4814, 4814, 4814, 5852.7, 5820.7, 4814, 4814, 4513.2, 4814, 4814, 4814, 4814, 4814, 10079.7, 4814, 4814, 4814, 4814, 4814, 12347, 4814], [3737.3, 4524.9, 3385.8, 2720.9, 2802, 4954.3, 440.5, 0, 1477.8, 1477.5, 5254.5, 5254.5, 5254.5, 6798.4, 7597.7, 7597.7, 8441.3, 5254.5, 5254.5, 5254.5, 5254.5, 5254.5, 6293.2, 6261.2, 5254.5, 5254.5, 4953.7, 5254.5, 5254.5, 5254.5, 5254.5, 5254.5, 9675.9, 5254.5, 5254.5, 5254.5, 5254.5, 5254.5, 11943.2, 5254.5], [5201.2, 5988.8, 4849.7, 4184.9, 4265.9, 6418.2, 1904.4, 1477.8, 0, 0.2, 6718.4, 6718.4, 6718.4, 5476.7, 6119.9, 6119.9, 9905.2, 6718.4, 6718.4, 6718.4, 6718.4, 6718.4, 7757.1, 7725.2, 6718.4, 6718.4, 6417.6, 6718.4, 6718.4, 6718.4, 6718.4, 6718.4, 8198.1, 6718.4, 6718.4, 6718.4, 6718.4, 6718.4, 10465.4, 6718.4], [5201, 5988.6, 4849.5, 4184.6, 4265.6, 6418, 1904.2, 1477.5, -0.2, 0, 6718.2, 6718.2, 6718.2, 5476.9, 6120.2, 6120.2, 9904.9, 6718.2, 6718.2, 6718.2, 6718.2, 6718.2, 7756.9, 7724.9, 6718.2, 6718.2, 6417.4, 6718.2, 6718.2, 6718.2, 6718.2, 6718.2, 8198.4, 6718.2, 6718.2, 6718.2, 6718.2, 6718.2, 10465.7, 6718.2], [2112.9, 3869.9, 4507.6, 4917.9, 4523.4, 6675.7, 4702.5, 5120.2, 6584.1, 6583.9, 0, 0, 0, 1001, 3490.8, 3490.8, 1953.8, 0, 0, 0, 0, 0, 1038.7, 1006.7, 0, 0, 1157.5, 0, 0, 0, 0, 0, 4192.2, 0, 0, 0, 0, 0, 4967, 0], [2112.9, 3869.9, 4507.6, 4917.9, 4523.4, 6675.7, 4702.5, 5120.2, 6584.1, 6583.9, 0, 0, 0, 1001, 3490.8, 3490.8, 1953.8, 0, 0, 0, 0, 0, 1038.7, 1006.7, 0, 0, 1157.5, 0, 0, 0, 0, 0, 4192.2, 0, 0, 0, 0, 0, 4967, 0], [2112.9, 3869.9, 4507.6, 4917.9, 4523.4, 6675.7, 4702.5, 5120.2, 6584.1, 6583.9, 0, 0, 0, 1001, 3490.8, 3490.8, 1953.8, 0, 0, 0, 0, 0, 1038.7, 1006.7, 0, 0, 1157.5, 0, 0, 0, 0, 0, 4192.2, 0, 0, 0, 0, 0, 4967, 0], [3113.8, 4870.9, 5508.6, 5918.9, 5524.4, 7676.7, 5996.7, 6414.3, 5476.7, 5476.9, 1001, 1001, 1001, 0, 4061.2, 4061.2, 2524.2, 1001, 1001, 1001, 1001, 1001, 1609.2, 1577.2, 1001, 1001, 2158.5, 1001, 1001, 1001, 1001, 1001, 4762.7, 1001, 1001, 1001, 1001, 1001, 5537.5, 1001], [5603.7, 7360.7, 10969.6, 10304.8, 10385.8, 12538.1, 8024.4, 7597.7, 6119.9, 6120.2, 3490.8, 3490.8, 3490.8, 4061.2, 0, 0, 4614.8, 3490.8, 3490.8, 3490.8, 3490.8, 3490.8, 3850.8, 2591, 3490.8, 3490.8, 4648.3, 3490.8, 3490.8, 3490.8, 3490.8, 3490.8, 3199.4, 3490.8, 3490.8, 3490.8, 3490.8, 3490.8, 5466.7, 3490.8], [5603.7, 7360.7, 10969.6, 10304.8, 10385.8, 12538.1, 8024.4, 7597.7, 6119.9, 6120.2, 3490.8, 3490.8, 3490.8, 4061.2, 0, 0, 4614.8, 3490.8, 3490.8, 3490.8, 3490.8, 3490.8, 3850.8, 2591, 3490.8, 3490.8, 4648.3, 3490.8, 3490.8, 3490.8, 3490.8, 3490.8, 3199.4, 3490.8, 3490.8, 3490.8, 3490.8, 3490.8, 5466.7, 3490.8], [4724.3, 6182.3, 7119.1, 7529.4, 7134.8, 6856.5, 8012.9, 8430.5, 9894.5, 9894.2, 1953.8, 1953.8, 1953.8, 2524.2, 4614.8, 4614.8, 0, 1953.8, 1953.8, 1953.8, 1953.8, 1953.8, 915, 2376.8, 1953.8, 1953.8, 2501.3, 1953.8, 1953.8, 1953.8, 1953.8, 1953.8, 5316.3, 1953.8, 1953.8, 1953.8, 1953.8, 1953.8, 4692.3, 1953.8], [2112.9, 3869.9, 4507.6, 4917.9, 4523.4, 6675.7, 4702.5, 5120.2, 6584.1, 6583.9, 0, 0, 0, 1001, 3490.8, 3490.8, 1953.8, 0, 0, 0, 0, 0, 1038.7, 1006.7, 0, 0, 1157.5, 0, 0, 0, 0, 0, 4192.2, 0, 0, 0, 0, 0, 4967, 0], [2112.9, 3869.9, 4507.6, 4917.9, 4523.4, 6675.7, 4702.5, 5120.2, 6584.1, 6583.9, 0, 0, 0, 1001, 3490.8, 3490.8, 1953.8, 0, 0, 0, 0, 0, 1038.7, 1006.7, 0, 0, 1157.5, 0, 0, 0, 0, 0, 4192.2, 0, 0, 0, 0, 0, 4967, 0], [2112.9, 3869.9, 4507.6, 4917.9, 4523.4, 6675.7, 4702.5, 5120.2, 6584.1, 6583.9, 0, 0, 0, 1001, 3490.8, 3490.8, 1953.8, 0, 0, 0, 0, 0, 1038.7, 1006.7, 0, 0, 1157.5, 0, 0, 0, 0, 0, 4192.2, 0, 0, 0, 0, 0, 4967, 0], [2112.9, 3869.9, 4507.6, 4917.9, 4523.4, 6675.7, 4702.5, 5120.2, 6584.1, 6583.9, 0, 0, 0, 1001, 3490.8, 3490.8, 1953.8, 0, 0, 0, 0, 0, 1038.7, 1006.7, 0, 0, 1157.5, 0, 0, 0, 0, 0, 4192.2, 0, 0, 0, 0, 0, 4967, 0], [2112.9, 3869.9, 4507.6, 4917.9, 4523.4, 6675.7, 4702.5, 5120.2, 6584.1, 6583.9, 0, 0, 0, 1001, 3490.8, 3490.8, 1953.8, 0, 0, 0, 0, 0, 1038.7, 1006.7, 0, 0, 1157.5, 0, 0, 0, 0, 0, 4192.2, 0, 0, 0, 0, 0, 4967, 0], [3151.6, 4908.7, 5546.4, 5956.7, 5562.1, 7714.4, 5741.3, 6158.9, 7622.8, 7622.6, 1038.7, 1038.7, 1038.7, 1609.2, 3850.8, 3850.8, 915, 1038.7, 1038.7, 1038.7, 1038.7, 1038.7, 0, 1612.8, 1038.7, 1038.7, 2043.9, 1038.7, 1038.7, 1038.7, 1038.7, 1038.7, 4552.3, 1038.7, 1038.7, 1038.7, 1038.7, 1038.7, 3928.3, 1038.7], [3119.6, 4876.7, 5514.4, 5924.7, 5530.1, 7682.5, 5709.3, 6127, 7590.9, 7590.6, 1006.7, 1006.7, 1006.7, 1577.2, 2591, 2591, 2376.8, 1006.7, 1006.7, 1006.7, 1006.7, 1006.7, 1612.8, 0, 1006.7, 1006.7, 2164.3, 1006.7, 1006.7, 1006.7, 1006.7, 1006.7, 3292.5, 1006.7, 1006.7, 1006.7, 1006.7, 1006.7, 3919.4, 1006.7], [2112.9, 3869.9, 4507.6, 4917.9, 4523.4, 6675.7, 4702.5, 5120.2, 6584.1, 6583.9, 0, 0, 0, 1001, 3490.8, 3490.8, 1953.8, 0, 0, 0, 0, 0, 1038.7, 1006.7, 0, 0, 1157.5, 0, 0, 0, 0, 0, 4192.2, 0, 0, 0, 0, 0, 4967, 0], [2112.9, 3869.9, 4507.6, 4917.9, 4523.4, 6675.7, 4702.5, 5120.2, 6584.1, 6583.9, 0, 0, 0, 1001, 3490.8, 3490.8, 1953.8, 0, 0, 0, 0, 0, 1038.7, 1006.7, 0, 0, 1157.5, 0, 0, 0, 0, 0, 4192.2, 0, 0, 0, 0, 0, 4967, 0], [1812.1, 3569.2, 4206.9, 4617.2, 4222.6, 6374.9, 4401.8, 4819.4, 6283.3, 6283.1, 1157.5, 1157.5, 1157.5, 2158.5, 4648.3, 4648.3, 2501.3, 1157.5, 1157.5, 1157.5, 1157.5, 1157.5, 2043.9, 2164.3, 1157.5, 1157.5, 0, 1157.5, 1157.5, 1157.5, 1157.5, 1157.5, 5349.8, 1157.5, 1157.5, 1157.5, 1157.5, 1157.5, 5972.2, 1157.5], [2112.9, 3869.9, 4507.6, 4917.9, 4523.4, 6675.7, 4702.5, 5120.2, 6584.1, 6583.9, 0, 0, 0, 1001, 3490.8, 3490.8, 1953.8, 0, 0, 0, 0, 0, 1038.7, 1006.7, 0, 0, 1157.5, 0, 0, 0, 0, 0, 4192.2, 0, 0, 0, 0, 0, 4967, 0], [2112.9, 3869.9, 4507.6, 4917.9, 4523.4, 6675.7, 4702.5, 5120.2, 6584.1, 6583.9, 0, 0, 0, 1001, 3490.8, 3490.8, 1953.8, 0, 0, 0, 0, 0, 1038.7, 1006.7, 0, 0, 1157.5, 0, 0, 0, 0, 0, 4192.2, 0, 0, 0, 0, 0, 4967, 0], [2112.9, 3869.9, 4507.6, 4917.9, 4523.4, 6675.7, 4702.5, 5120.2, 6584.1, 6583.9, 0, 0, 0, 1001, 3490.8, 3490.8, 1953.8, 0, 0, 0, 0, 0, 1038.7, 1006.7, 0, 0, 1157.5, 0, 0, 0, 0, 0, 4192.2, 0, 0, 0, 0, 0, 4967, 0], [2112.9, 3869.9, 4507.6, 4917.9, 4523.4, 6675.7, 4702.5, 5120.2, 6584.1, 6583.9, 0, 0, 0, 1001, 3490.8, 3490.8, 1953.8, 0, 0, 0, 0, 0, 1038.7, 1006.7, 0, 0, 1157.5, 0, 0, 0, 0, 0, 4192.2, 0, 0, 0, 0, 0, 4967, 0], [2112.9, 3869.9, 4507.6, 4917.9, 4523.4, 6675.7, 4702.5, 5120.2, 6584.1, 6583.9, 0, 0, 0, 1001, 3490.8, 3490.8, 1953.8, 0, 0, 0, 0, 0, 1038.7, 1006.7, 0, 0, 1157.5, 0, 0, 0, 0, 0, 4192.2, 0, 0, 0, 0, 0, 4967, 0], [6305.1, 8062.2, 13030.4, 12365.5, 12446.6, 14598.9, 10085.1, 9658.4, 8180.7, 8180.9, 4192.2, 4192.2, 4192.2, 4762.7, 3227.9, 3227.9, 5316.3, 4192.2, 4192.2, 4192.2, 4192.2, 4192.2, 4552.3, 3292.5, 4192.2, 4192.2, 5349.8, 4192.2, 4192.2, 4192.2, 4192.2, 4192.2, 0, 4192.2, 4192.2, 4192.2, 4192.2, 4192.2, 2360.4, 4192.2], [2112.9, 3869.9, 4507.6, 4917.9, 4523.4, 6675.7, 4702.5, 5120.2, 6584.1, 6583.9, 0, 0, 0, 1001, 3490.8, 3490.8, 1953.8, 0, 0, 0, 0, 0, 1038.7, 1006.7, 0, 0, 1157.5, 0, 0, 0, 0, 0, 4192.2, 0, 0, 0, 0, 0, 4967, 0], [2112.9, 3869.9, 4507.6, 4917.9, 4523.4, 6675.7, 4702.5, 5120.2, 6584.1, 6583.9, 0, 0, 0, 1001, 3490.8, 3490.8, 1953.8, 0, 0, 0, 0, 0, 1038.7, 1006.7, 0, 0, 1157.5, 0, 0, 0, 0, 0, 4192.2, 0, 0, 0, 0, 0, 4967, 0], [2112.9, 3869.9, 4507.6, 4917.9, 4523.4, 6675.7, 4702.5, 5120.2, 6584.1, 6583.9, 0, 0, 0, 1001, 3490.8, 3490.8, 1953.8, 0, 0, 0, 0, 0, 1038.7, 1006.7, 0, 0, 1157.5, 0, 0, 0, 0, 0, 4192.2, 0, 0, 0, 0, 0, 4967, 0], [2112.9, 3869.9, 4507.6, 4917.9, 4523.4, 6675.7, 4702.5, 5120.2, 6584.1, 6583.9, 0, 0, 0, 1001, 3490.8, 3490.8, 1953.8, 0, 0, 0, 0, 0, 1038.7, 1006.7, 0, 0, 1157.5, 0, 0, 0, 0, 0, 4192.2, 0, 0, 0, 0, 0, 4967, 0], [2112.9, 3869.9, 4507.6, 4917.9, 4523.4, 6675.7, 4702.5, 5120.2, 6584.1, 6583.9, 0, 0, 0, 1001, 3490.8, 3490.8, 1953.8, 0, 0, 0, 0, 0, 1038.7, 1006.7, 0, 0, 1157.5, 0, 0, 0, 0, 0, 4192.2, 0, 0, 0, 0, 0, 4967, 0], [7079.9, 8837, 9474.7, 9885, 9490.5, 11642.8, 12352.4, 11925.7, 10448, 10448.2, 4967, 4967, 4967, 5537.5, 5495.2, 5495.2, 4692.3, 4967, 4967, 4967, 4967, 4967, 3928.3, 3919.4, 4967, 4967, 5972.2, 4967, 4967, 4967, 4967, 4967, 2360.4, 4967, 4967, 4967, 4967, 4967, 0, 4967], [2112.9, 3869.9, 4507.6, 4917.9, 4523.4, 6675.7, 4702.5, 5120.2, 6584.1, 6583.9, 0, 0, 0, 1001, 3490.8, 3490.8, 1953.8, 0, 0, 0, 0, 0, 1038.7, 1006.7, 0, 0, 1157.5, 0, 0, 0, 0, 0, 4192.2, 0, 0, 0, 0, 0, 4967, 0]]}