{"schools": [{"school_id": "50102683", "school_name": "SD NEGERI 5 ABABI", "demand": 83, "latitude": -8.404496199999999, "longitude": 115.5876226, "lunch_time": 570, "cluster": 14, "service_time": 38.2}, {"school_id": "50102733", "school_name": "SD NEGERI 4 ABABI", "demand": 89, "latitude": -8.4033721, "longitude": 115.5964294, "lunch_time": 570, "cluster": 14, "service_time": 40.6}, {"school_id": "50102771", "school_name": "SMKN 1 ABANG", "demand": 758, "latitude": -8.3777327, "longitude": 115.6029761, "lunch_time": 720, "cluster": 14, "service_time": 308.2}, {"school_id": "50102775", "school_name": "SMP NEGERI 1 ABANG", "demand": 769, "latitude": -8.3946642, "longitude": 115.5974773, "lunch_time": 720, "cluster": 14, "service_time": 312.6}, {"school_id": "50102799", "school_name": "SMP NEGERI 5 ABANG", "demand": 360, "latitude": -8.376482600000001, "longitude": 115.5866782, "lunch_time": 720, "cluster": 14, "service_time": 149.0}, {"school_id": "50102822", "school_name": "SD NEGERI 8 ABABI", "demand": 52, "latitude": -8.3971539, "longitude": 115.5823629, "lunch_time": 570, "cluster": 14, "service_time": 25.8}, {"school_id": "50102832", "school_name": "SD NEGERI 7 ABABI", "demand": 78, "latitude": -8.4088219, "longitude": 115.5989522, "lunch_time": 570, "cluster": 14, "service_time": 36.2}, {"school_id": "50102868", "school_name": "SD NEGERI 1 PIDPID", "demand": 134, "latitude": -8.3828478, "longitude": 115.5930091, "lunch_time": 570, "cluster": 14, "service_time": 58.6}, {"school_id": "50102871", "school_name": "SD NEGERI 1 NAWA KERTI", "demand": 240, "latitude": -8.3787932, "longitude": 115.5772002, "lunch_time": 570, "cluster": 14, "service_time": 101.0}, {"school_id": "50102884", "school_name": "SD NEGERI 2 ABABI", "demand": 95, "latitude": -8.4161418, "longitude": 115.604678, "lunch_time": 570, "cluster": 14, "service_time": 43.0}, {"school_id": "50102885", "school_name": "SD NEGERI 2 ABANG", "demand": 137, "latitude": -8.3951902, "longitude": 115.6071143, "lunch_time": 570, "cluster": 14, "service_time": 59.8}, {"school_id": "50102898", "school_name": "SD NEGERI 1 TISTA", "demand": 148, "latitude": -8.379128, "longitude": 115.6108195, "lunch_time": 570, "cluster": 14, "service_time": 64.2}, {"school_id": "50102923", "school_name": "SD NEGERI 1 ABABI", "demand": 100, "latitude": -8.404231900000001, "longitude": 115.5881117, "lunch_time": 570, "cluster": 14, "service_time": 45.0}, {"school_id": "50102931", "school_name": "SD NEGERI 1 KESIMPAR", "demand": 75, "latitude": -8.3768694, "longitude": 115.5951375, "lunch_time": 570, "cluster": 14, "service_time": 35.0}, {"school_id": "50102935", "school_name": "SD NEGERI 1 ABANG", "demand": 146, "latitude": -8.390544199999999, "longitude": 115.5985098, "lunch_time": 570, "cluster": 14, "service_time": 63.4}, {"school_id": "50102956", "school_name": "SD NEGERI 3 ABANG", "demand": 69, "latitude": -8.3952504, "longitude": 115.5960294, "lunch_time": 570, "cluster": 14, "service_time": 32.6}, {"school_id": "50102959", "school_name": "SD NEGERI 2 TIYINGTALI", "demand": 144, "latitude": -8.407151899999999, "longitude": 115.6131706, "lunch_time": 570, "cluster": 14, "service_time": 62.6}, {"school_id": "50102972", "school_name": "SD NEGERI 3 PIDPID", "demand": 57, "latitude": -8.390407399999999, "longitude": 115.5860783, "lunch_time": 570, "cluster": 14, "service_time": 27.8}, {"school_id": "50102993", "school_name": "SD NEGERI 2 KESIMPAR", "demand": 83, "latitude": -8.3718513, "longitude": 115.5903106, "lunch_time": 570, "cluster": 14, "service_time": 38.2}, {"school_id": "50103010", "school_name": "SD NEGERI 2 NAWA KERTI", "demand": 91, "latitude": -8.3694814, "longitude": 115.579242, "lunch_time": 570, "cluster": 14, "service_time": 41.4}, {"school_id": "50103808", "school_name": "SD NEGERI 2 TRIBUANA", "demand": 148, "latitude": -8.3977443, "longitude": 115.6176778, "lunch_time": 570, "cluster": 14, "service_time": 64.2}, {"school_id": "50103809", "school_name": "SD NEGERI 3 TRIBUANA", "demand": 132, "latitude": -8.3939069, "longitude": 115.6188492, "lunch_time": 570, "cluster": 14, "service_time": 57.8}, {"school_id": "50103810", "school_name": "SD NEGERI 2 TISTA", "demand": 85, "latitude": -8.376824599999999, "longitude": 115.6000932, "lunch_time": 570, "cluster": 14, "service_time": 39.0}, {"school_id": "50103811", "school_name": "SD NEGERI 3 TISTA", "demand": 75, "latitude": -8.3852259, "longitude": 115.6087977, "lunch_time": 570, "cluster": 14, "service_time": 35.0}, {"school_id": "50103812", "school_name": "SD NEGERI 4 TISTA", "demand": 74, "latitude": -8.3749111, "longitude": 115.6186879, "lunch_time": 570, "cluster": 14, "service_time": 34.6}, {"school_id": "50103813", "school_name": "SD NEGERI 4 TRIBUANA", "demand": 89, "latitude": -8.388427799999999, "longitude": 115.6203161, "lunch_time": 570, "cluster": 14, "service_time": 40.6}, {"school_id": "50103814", "school_name": "SD NEGERI 1 TIYINGTALI", "demand": 124, "latitude": -8.41403, "longitude": 115.61695, "lunch_time": 570, "cluster": 14, "service_time": 54.6}, {"school_id": "50105103", "school_name": "TK NEGERI PEMBINA ABANG", "demand": 112, "latitude": -8.3898903, "longitude": 115.6013377, "lunch_time": 480, "cluster": 14, "service_time": 49.8}, {"school_id": "69988528", "school_name": "SMP NEGERI 6 ABANG", "demand": 432, "latitude": -8.375410500000001, "longitude": 115.6069502, "lunch_time": 720, "cluster": 14, "service_time": 177.8}, {"school_id": "70003333", "school_name": "SMA NEGERI 1 ABANG", "demand": 752, "latitude": -8.3747587, "longitude": 115.6073499, "lunch_time": 720, "cluster": 14, "service_time": 305.8}], "kitchens": [{"kitchen_name": "SPPG Karangasem Karangasem Padangkerta 2", "latitude": -8.425523822252433, "longitude": 115.59398778315924, "type": "sppg", "kitchen_id": "c32138a6-8d69-4cbb-89aa-e728a47b2303", "capacity": 2000, "fixed_cost": 6000000, "maximum_vehicles": 2}, {"kitchen_name": "Katering Warung Nasi Campur Mok Luh jape", "latitude": -8.433556099999999, "longitude": 115.600776, "type": "catering_service", "kitchen_id": "4dc87a13-5afb-4440-988d-f92ab96321cc", "capacity": 2000, "fixed_cost": 6000000, "maximum_vehicles": 2}, {"kitchen_name": "Martabak MARBUANA 26", "latitude": -8.4337006, "longitude": 115.6141191, "type": "buffet_restaurant", "kitchen_id": "c5f72c0c-3725-4e83-a9b4-ea4354fee887", "capacity": 2000, "fixed_cost": 6000000, "maximum_vehicles": 2}, {"kitchen_name": "SPPG Karangasem Karangasem Padangkerta", "latitude": -8.43603902894372, "longitude": 115.59592493308222, "type": "sppg", "kitchen_id": "c32113e6-00c4-4191-87de-0140b7408f29", "capacity": 2000, "fixed_cost": 6000000, "maximum_vehicles": 2}, {"kitchen_name": "Bali Wedding Catering", "latitude": -8.4398469, "longitude": 115.5959134, "type": "catering_service", "kitchen_id": "b30d7ec3-7970-4cd1-840b-ff77702a4a6e", "capacity": 2000, "fixed_cost": 6000000, "maximum_vehicles": 2}, {"kitchen_name": "SPPG Karangasem Karangasem Padangkerta 3", "latitude": -8.4418851, "longitude": 115.5965798, "type": "sppg", "kitchen_id": "701bce9c-8cd9-42c2-bd8b-31c764937369", "capacity": 2000, "fixed_cost": 6000000, "maximum_vehicles": 2}, {"kitchen_name": "Warung Ayu", "latitude": -8.4533997, "longitude": 115.601856, "type": "catering_service", "kitchen_id": "5eb64568-3a47-4f74-8001-de39b8582003", "capacity": 2000, "fixed_cost": 6000000, "maximum_vehicles": 2}, {"kitchen_name": "MARTABAK TIM TAM", "latitude": -8.456191, "longitude": 115.6018017, "type": "buffet_restaurant", "kitchen_id": "6c454cab-a9e4-4f81-964d-5dac1a8ae502", "capacity": 2000, "fixed_cost": 6000000, "maximum_vehicles": 2}, {"kitchen_name": "Martabak 26", "latitude": -8.456632200000001, "longitude": 115.5978277, "type": "buffet_restaurant", "kitchen_id": "12dd44f5-377f-4dea-b1b3-60dcb417f431", "capacity": 2000, "fixed_cost": 6000000, "maximum_vehicles": 2}, {"kitchen_name": "SPPG Karangasem Karangasem Subagan", "latitude": -8.466045670720375, "longitude": 115.61081245882858, "type": "sppg", "kitchen_id": "7bf5d5c6-ac67-4431-af6c-b6ca946f7321", "capacity": 2000, "fixed_cost": 6000000, "maximum_vehicles": 2}], "suppliers": [{"supplier_name": "Pasar desa abang", "latitude": -8.3881717, "longitude": 115.6015562, "type": "market", "ingredient": "vegetables"}, {"supplier_name": "I Nyoman Rindi", "latitude": -8.388297, "longitude": 115.6139139, "type": "butcher", "ingredient": "meat"}, {"supplier_name": "Luluh sate YAYIK", "latitude": -8.399705299999999, "longitude": 115.6099415, "type": "butcher", "ingredient": "meat"}, {"supplier_name": "Pasar Mangsul Tista", "latitude": -8.3789875, "longitude": 115.6091815, "type": "market", "ingredient": "vegetables"}, {"supplier_name": "Toko sinar ayu", "latitude": -8.3793467, "longitude": 115.6100968, "type": "market", "ingredient": "vegetables"}, {"supplier_name": "Sodagar dare yan bluyun", "latitude": -8.407108299999999, "longitude": 115.6043167, "type": "market", "ingredient": "vegetables"}, {"supplier_name": "Sodagar paksi yan bluyun", "latitude": -8.4098965, "longitude": 115.5998601, "type": "market", "ingredient": "vegetables"}, {"supplier_name": "Buah Segar Berina", "latitude": -8.3692119, "longitude": 115.6089981, "type": "market", "ingredient": "vegetables"}, {"supplier_name": "Wr.putu sugiantari", "latitude": -8.3695258, "longitude": 115.5898054, "type": "butcher", "ingredient": "meat"}, {"supplier_name": "Dagang es daluman", "latitude": -8.3708929, "longitude": 115.58731829999998, "type": "market", "ingredient": "vegetables"}], "first_echelon_matrix": [[0.0, 3.0, 6.0, 2.6, 2.8, 7.0, 4.5, 4.7, 4.8, 4.3, 9.2, 15.0, 10.0, 12.4, 12.2, 13.0, 15.8, 16.4, 16.7, 18.6], [3.0, 0.0, 5.8, 2.5, 2.7, 10.0, 7.6, 4.6, 6.8, 6.8, 12.2, 18.0, 10.8, 15.4, 15.3, 16.0, 18.9, 19.5, 19.8, 21.7], [6.0, 5.8, 0.0, 5.4, 5.5, 6.0, 3.5, 7.4, 7.5, 7.0, 10.0, 8.8, 6.7, 13.2, 13.1, 13.8, 16.7, 17.3, 17.6, 19.5], [2.6, 2.5, 5.4, 0.0, 0.2, 9.6, 7.2, 2.1, 4.2, 4.2, 11.8, 17.6, 12.6, 15.0, 14.9, 15.6, 18.5, 19.1, 19.4, 21.3], [2.8, 2.7, 5.5, 0.2, 0.0, 9.8, 7.3, 2.2, 4.4, 4.4, 12.0, 17.8, 12.8, 15.2, 15.0, 15.8, 18.6, 19.2, 19.5, 21.4], [7.0, 10.0, 6.0, 9.6, 9.8, 0.0, 2.4, 11.6, 11.7, 11.2, 6.5, 6.3, 5.4, 8.2, 9.7, 10.4, 13.3, 13.9, 14.2, 16.1], [4.5, 7.6, 3.5, 7.2, 7.3, 2.4, 0.0, 9.2, 9.3, 8.8, 8.5, 6.3, 5.4, 11.8, 11.6, 12.4, 15.2, 15.8, 16.1, 18.0], [4.7, 4.6, 7.4, 2.1, 2.2, 11.6, 9.2, 0.0, 5.7, 5.6, 13.8, 19.7, 14.7, 17.1, 16.9, 17.7, 20.5, 21.1, 21.4, 23.3], [4.8, 6.8, 7.5, 4.2, 4.4, 11.7, 9.3, 5.7, 0.0, 2.4, 14.0, 19.8, 14.8, 17.2, 17.0, 17.8, 20.6, 21.2, 21.5, 23.4], [4.3, 6.8, 7.0, 4.2, 4.4, 11.2, 8.8, 5.6, 2.4, 0.0, 13.5, 19.3, 14.3, 16.7, 16.5, 17.3, 20.1, 20.7, 21.0, 22.9], [9.2, 12.2, 10.0, 11.8, 12.0, 6.5, 8.5, 13.8, 14.0, 13.5, 0.0, 6.0, 6.8, 3.4, 3.2, 4.0, 6.8, 7.4, 7.7, 9.6], [15.0, 18.0, 8.8, 17.6, 17.8, 6.3, 6.3, 19.7, 19.8, 19.3, 6.0, 0.0, 2.6, 2.7, 2.7, 3.3, 6.2, 6.8, 7.1, 9.0], [9.9, 13.0, 6.6, 12.6, 12.7, 5.4, 5.4, 14.6, 14.7, 14.2, 6.8, 2.6, 0.0, 3.6, 3.6, 4.2, 5.1, 5.7, 6.0, 7.9], [12.4, 15.4, 13.2, 15.0, 15.2, 8.2, 11.8, 17.1, 17.2, 16.7, 3.4, 2.7, 3.6, 0.0, 1.0, 1.6, 4.5, 5.1, 5.3, 7.3], [12.2, 15.3, 13.1, 14.9, 15.0, 9.7, 11.6, 16.9, 17.0, 16.5, 3.2, 2.7, 3.6, 1.0, 0.0, 0.7, 3.6, 4.2, 4.5, 6.4], [13.0, 16.0, 13.8, 15.6, 15.8, 10.4, 12.4, 17.7, 17.8, 17.3, 4.0, 3.3, 4.2, 1.6, 0.7, 0.0, 3.5, 4.1, 4.4, 6.3], [15.8, 18.8, 16.6, 18.4, 18.6, 13.2, 15.2, 20.5, 20.6, 20.1, 6.8, 6.1, 4.9, 4.4, 3.5, 3.4, 0.0, 0.6, 0.9, 2.8], [16.4, 19.5, 17.3, 19.1, 19.2, 13.9, 15.8, 21.1, 21.2, 20.7, 7.4, 6.8, 5.6, 5.1, 4.2, 4.1, 0.7, 0.0, 0.9, 2.2], [16.7, 19.7, 17.5, 19.3, 19.5, 14.1, 16.0, 21.4, 21.5, 21.0, 7.7, 7.0, 5.8, 5.3, 4.4, 4.3, 0.9, 0.9, 0.0, 3.1], [18.6, 21.7, 19.5, 21.3, 21.4, 16.1, 18.0, 23.3, 23.4, 22.9, 9.6, 9.0, 7.8, 7.3, 6.4, 6.3, 2.9, 2.2, 3.1, 0.0]], "second_echelon_matrix": [[0.0, 6.0, 6.8, 3.4, 3.2, 4.0, 6.8, 7.4, 7.7, 9.6, 4.8, 7.4, 12.9, 7.4, 13.0, 6.4, 8.4, 11.4, 14.2, 5.2, 10.3, 12.1, 4.7, 12.2, 8.4, 7.4, 11.1, 9.3, 13.4, 14.8, 14.3, 13.9, 13.4, 11.1, 13.9, 13.5, 7.0, 9.1, 12.6, 12.6], [6.0, 0.0, 2.6, 2.7, 2.7, 3.3, 6.2, 6.8, 7.1, 9.0, 10.6, 7.6, 18.7, 13.2, 18.8, 12.2, 6.5, 17.2, 20.0, 5.0, 9.9, 17.9, 10.5, 18.0, 14.2, 13.2, 7.5, 15.1, 19.2, 20.7, 10.6, 11.8, 19.2, 16.9, 19.7, 19.3, 6.0, 14.9, 18.4, 18.4], [6.8, 2.6, 0.0, 3.6, 3.6, 4.2, 5.1, 5.7, 6.0, 7.9, 11.5, 6.7, 13.6, 8.2, 13.7, 13.1, 5.7, 12.2, 15.0, 4.1, 7.6, 12.9, 11.4, 13.0, 9.2, 8.2, 5.3, 10.1, 14.2, 15.6, 8.4, 9.6, 14.1, 11.9, 14.7, 11.2, 3.8, 9.9, 13.4, 13.4], [3.4, 2.7, 3.6, 0.0, 1.0, 1.6, 4.5, 5.1, 5.3, 7.3, 8.0, 10.6, 16.1, 10.7, 16.2, 9.6, 11.6, 14.6, 17.4, 6.9, 13.5, 15.3, 7.9, 15.4, 11.6, 10.6, 8.8, 12.5, 16.6, 18.1, 17.5, 17.1, 16.6, 14.3, 17.2, 16.7, 7.3, 12.3, 15.8, 15.8], [3.2, 2.7, 3.6, 1.0, 0.0, 0.7, 3.6, 4.2, 4.5, 6.4, 7.9, 10.5, 15.9, 10.5, 16.0, 9.4, 11.4, 14.4, 17.3, 8.4, 13.4, 15.2, 7.8, 15.3, 11.5, 10.5, 8.9, 12.4, 16.5, 17.9, 17.4, 17.0, 16.4, 14.2, 17.0, 16.6, 7.4, 12.2, 15.7, 15.7], [4.0, 3.3, 4.2, 1.6, 0.7, 0.0, 3.5, 4.1, 4.4, 6.3, 8.6, 11.2, 16.7, 11.3, 16.8, 10.2, 12.2, 15.2, 18.0, 9.2, 14.1, 15.9, 8.5, 16.0, 12.2, 11.2, 9.4, 13.1, 17.2, 18.7, 18.1, 17.7, 17.2, 14.9, 17.8, 17.3, 8.0, 12.9, 16.4, 16.4], [6.8, 6.1, 4.9, 4.4, 3.5, 3.4, 0.0, 0.6, 0.9, 2.8, 11.4, 14.0, 19.5, 14.1, 19.6, 13.0, 15.0, 18.0, 20.8, 12.0, 16.9, 18.7, 11.3, 18.8, 15.0, 14.0, 10.2, 15.9, 20.0, 21.5, 20.9, 20.5, 20.0, 17.7, 20.6, 20.1, 8.7, 15.7, 19.2, 19.2], [7.4, 6.8, 5.6, 5.1, 4.2, 4.1, 0.7, 0.0, 0.9, 2.2, 12.1, 14.7, 20.1, 14.7, 20.2, 13.7, 15.6, 18.7, 21.5, 12.6, 17.6, 19.4, 12.0, 19.5, 15.7, 14.7, 10.9, 16.6, 20.7, 22.1, 21.6, 21.2, 20.6, 18.4, 21.2, 20.8, 9.4, 16.4, 19.9, 19.9], [7.7, 7.0, 5.8, 5.3, 4.4, 4.3, 0.9, 0.9, 0.0, 3.1, 12.3, 14.9, 20.4, 14.9, 20.5, 13.9, 15.9, 18.9, 21.7, 12.8, 17.8, 19.6, 12.2, 19.7, 15.9, 14.9, 11.1, 16.8, 20.9, 22.3, 21.8, 21.4, 20.9, 18.6, 21.4, 21.0, 9.6, 16.6, 20.1, 20.1], [9.6, 9.0, 7.8, 7.3, 6.4, 6.3, 2.9, 2.2, 3.1, 0.0, 14.3, 16.9, 22.3, 16.9, 22.4, 15.8, 17.8, 20.8, 23.7, 14.8, 19.8, 21.6, 14.2, 21.7, 17.9, 16.9, 13.1, 18.8, 22.9, 24.3, 23.8, 23.4, 22.8, 20.6, 23.4, 23.0, 11.6, 18.6, 22.1, 22.1], [4.8, 10.6, 11.5, 8.0, 7.9, 8.6, 11.5, 12.1, 12.4, 14.3, 0.0, 3.1, 8.6, 3.1, 8.7, 2.1, 4.1, 7.1, 9.9, 5.6, 6.0, 7.8, 0.4, 7.9, 4.1, 3.1, 6.8, 5.0, 9.1, 10.6, 10.0, 9.6, 9.1, 6.8, 9.6, 9.2, 8.2, 4.8, 8.3, 8.3], [7.4, 7.6, 6.8, 10.6, 10.5, 11.2, 14.1, 14.7, 15.0, 16.9, 3.1, 0.0, 7.1, 1.7, 7.2, 3.8, 1.1, 5.6, 8.4, 2.6, 3.1, 6.3, 2.7, 6.4, 2.6, 1.6, 3.8, 3.5, 7.6, 9.1, 8.5, 8.1, 7.6, 5.3, 8.2, 7.7, 5.3, 3.3, 6.8, 6.8], [12.9, 18.7, 13.7, 16.1, 15.9, 16.7, 19.5, 20.1, 20.4, 22.3, 8.6, 7.1, 0.0, 5.4, 3.2, 9.2, 8.0, 2.7, 5.1, 9.5, 5.4, 1.4, 8.1, 1.4, 4.5, 5.8, 10.8, 7.6, 2.6, 4.5, 5.7, 5.3, 0.5, 2.5, 3.2, 4.9, 12.2, 4.0, 1.0, 1.0], [7.4, 13.2, 8.2, 10.7, 10.5, 11.3, 14.1, 14.7, 15.0, 16.9, 3.1, 1.7, 5.4, 0.0, 5.5, 3.8, 2.6, 3.9, 6.8, 4.1, 4.0, 4.7, 2.7, 4.8, 0.9, 0.3, 5.3, 2.2, 6.0, 7.4, 6.8, 6.5, 5.9, 3.7, 6.5, 6.1, 6.8, 1.7, 5.2, 5.2], [13.0, 18.8, 13.8, 16.2, 16.0, 16.8, 19.6, 20.2, 20.5, 22.4, 8.7, 7.2, 3.2, 5.5, 0.0, 9.3, 8.1, 1.9, 2.4, 9.6, 5.5, 6.2, 8.2, 1.8, 4.6, 5.9, 10.9, 4.7, 1.9, 3.1, 8.4, 8.0, 2.8, 5.2, 8.0, 7.6, 12.3, 4.1, 4.1, 4.2], [6.4, 12.2, 13.0, 9.6, 9.4, 10.2, 13.0, 13.7, 13.9, 15.8, 2.1, 3.8, 9.2, 3.8, 9.3, 0.0, 4.7, 4.7, 10.6, 6.2, 6.7, 8.5, 1.7, 8.6, 4.8, 3.8, 7.5, 3.7, 9.8, 11.2, 10.7, 10.3, 9.7, 7.5, 10.3, 9.9, 8.9, 5.5, 9.0, 9.0], [8.4, 6.5, 5.7, 11.6, 11.4, 12.2, 15.0, 15.6, 15.9, 17.8, 4.1, 1.1, 8.0, 2.6, 8.1, 4.7, 0.0, 6.5, 9.4, 1.6, 3.6, 7.3, 3.6, 7.4, 3.6, 2.6, 4.4, 4.5, 8.6, 10.0, 9.5, 9.1, 8.5, 6.3, 9.1, 8.7, 5.8, 4.3, 7.8, 7.8], [11.4, 17.2, 12.2, 14.6, 14.4, 15.2, 18.0, 18.7, 18.9, 20.8, 7.1, 5.6, 2.7, 3.9, 1.9, 7.7, 6.5, 0.0, 3.2, 8.0, 4.0, 4.6, 6.7, 1.8, 3.0, 4.3, 9.3, 2.8, 2.0, 3.8, 6.8, 6.4, 2.3, 3.6, 6.4, 6.0, 10.7, 2.5, 5.1, 5.1], [14.2, 20.0, 15.0, 17.4, 17.3, 18.0, 20.9, 21.5, 21.8, 23.7, 9.9, 8.4, 5.1, 6.8, 2.4, 10.6, 9.4, 3.2, 0.0, 10.9, 6.8, 7.4, 9.5, 3.7, 5.8, 7.1, 12.1, 5.7, 3.8, 4.7, 9.6, 9.2, 4.7, 6.4, 9.3, 8.8, 13.5, 5.3, 7.9, 7.9], [5.2, 5.0, 4.1, 6.9, 8.4, 9.2, 12.0, 12.6, 12.9, 14.8, 5.6, 2.6, 9.5, 4.1, 9.6, 6.2, 1.6, 8.0, 10.9, 0.0, 5.1, 8.8, 5.1, 8.9, 5.1, 4.1, 5.9, 6.0, 10.1, 11.5, 10.9, 10.6, 10.0, 7.8, 10.6, 10.2, 5.8, 5.8, 9.3, 9.3], [10.3, 9.9, 7.7, 13.5, 13.4, 14.1, 17.0, 17.6, 17.9, 19.8, 6.0, 3.1, 5.4, 4.0, 5.5, 6.7, 3.6, 4.0, 6.8, 5.1, 0.0, 4.7, 5.6, 4.8, 3.1, 4.4, 2.4, 6.3, 6.0, 7.4, 6.9, 6.5, 5.9, 3.7, 6.5, 6.1, 3.9, 2.6, 5.2, 5.2], [12.1, 17.9, 12.9, 15.3, 15.2, 15.9, 18.8, 19.4, 19.7, 21.6, 7.8, 6.3, 1.4, 4.7, 6.2, 8.5, 7.3, 4.6, 7.4, 8.8, 4.7, 0.0, 7.4, 2.8, 3.7, 5.0, 10.0, 6.9, 4.0, 5.9, 4.9, 4.6, 1.9, 1.7, 1.9, 4.1, 11.4, 3.2, 1.1, 1.1], [4.7, 10.5, 11.4, 7.9, 7.8, 8.5, 11.4, 12.0, 12.3, 14.2, 0.4, 2.7, 8.1, 2.7, 8.2, 1.7, 3.6, 6.7, 9.5, 5.1, 5.6, 7.4, 0.0, 7.5, 3.7, 2.7, 6.4, 4.6, 8.7, 10.1, 9.6, 9.2, 8.7, 6.4, 9.2, 8.8, 7.8, 4.4, 7.9, 7.9], [12.2, 18.0, 13.0, 15.4, 15.3, 16.0, 18.9, 19.5, 19.8, 21.7, 7.9, 6.4, 1.4, 4.8, 1.8, 8.6, 7.4, 1.8, 3.7, 8.9, 4.8, 2.8, 7.5, 0.0, 3.8, 5.1, 10.1, 4.6, 1.2, 3.1, 7.1, 6.7, 1.0, 3.9, 4.6, 6.3, 11.5, 3.3, 2.4, 2.4], [8.4, 14.2, 9.2, 11.6, 11.5, 12.2, 15.0, 15.7, 15.9, 17.9, 4.1, 2.6, 4.5, 0.9, 4.6, 4.8, 3.6, 3.0, 5.8, 5.1, 3.1, 3.7, 3.7, 3.8, 0.0, 1.3, 6.3, 3.2, 5.0, 6.5, 5.9, 5.5, 5.0, 2.7, 5.6, 5.1, 7.7, 0.7, 4.2, 4.2], [7.4, 13.2, 8.2, 10.6, 10.5, 11.2, 14.0, 14.7, 14.9, 16.9, 3.1, 1.6, 5.8, 0.3, 5.9, 3.8, 2.6, 2.9, 7.1, 4.1, 4.4, 5.0, 2.7, 5.1, 1.3, 0.0, 5.3, 1.9, 6.3, 7.7, 7.2, 6.8, 6.3, 4.0, 6.8, 6.4, 6.7, 2.0, 5.5, 5.5], [11.1, 7.5, 5.3, 8.9, 8.9, 9.5, 10.2, 10.9, 11.1, 13.1, 6.8, 3.8, 10.8, 5.3, 10.9, 7.5, 4.4, 9.3, 12.1, 5.9, 2.4, 10.0, 6.4, 10.1, 6.3, 5.3, 0.0, 7.2, 11.3, 12.7, 6.3, 7.5, 11.3, 9.0, 11.8, 11.4, 1.5, 7.0, 10.5, 10.5], [9.3, 15.1, 10.1, 12.5, 12.4, 13.1, 15.9, 16.6, 16.8, 18.8, 5.0, 3.5, 7.6, 2.2, 4.7, 3.7, 4.5, 2.8, 5.7, 6.0, 6.3, 6.9, 4.6, 4.6, 3.2, 1.9, 7.2, 0.0, 4.8, 6.6, 9.1, 8.7, 8.2, 5.9, 8.7, 8.3, 8.6, 3.9, 7.4, 7.4], [13.4, 19.2, 14.2, 16.6, 16.5, 17.2, 20.1, 20.7, 21.0, 22.9, 9.1, 7.6, 2.6, 6.0, 1.9, 9.8, 8.6, 2.0, 3.8, 10.1, 6.0, 4.0, 8.7, 1.2, 5.0, 6.3, 11.3, 4.8, 0.0, 3.2, 8.3, 7.9, 2.2, 5.1, 5.8, 7.5, 12.8, 4.5, 3.6, 3.6], [14.8, 20.7, 15.6, 18.1, 17.9, 18.7, 21.5, 22.1, 22.4, 24.3, 10.6, 9.1, 4.5, 7.4, 3.1, 11.2, 10.0, 3.8, 4.7, 11.5, 7.4, 5.9, 10.1, 3.1, 6.5, 7.7, 12.7, 6.6, 3.2, 0.0, 10.2, 9.9, 4.1, 7.1, 7.7, 9.5, 14.2, 6.0, 5.5, 5.5], [14.3, 10.6, 8.4, 17.5, 17.4, 18.1, 20.9, 21.6, 21.8, 23.8, 10.0, 8.5, 5.7, 6.8, 8.4, 10.7, 9.5, 6.8, 9.6, 10.9, 6.9, 4.9, 9.6, 7.1, 5.9, 7.2, 6.3, 9.1, 8.3, 10.2, 0.0, 1.4, 6.2, 3.2, 5.0, 3.0, 4.8, 5.4, 5.4, 5.4], [13.9, 11.8, 9.6, 17.1, 17.0, 17.7, 20.6, 21.2, 21.5, 23.4, 9.6, 8.1, 5.3, 6.5, 8.0, 10.3, 9.1, 6.4, 9.2, 10.6, 6.5, 4.6, 9.2, 6.7, 5.5, 6.8, 7.5, 8.7, 7.9, 9.9, 1.4, 0.0, 5.8, 2.8, 4.6, 2.7, 6.0, 5.1, 5.1, 5.0], [13.4, 19.2, 14.2, 16.6, 16.4, 17.2, 20.0, 20.6, 20.9, 22.8, 9.1, 7.6, 0.5, 5.9, 2.8, 9.7, 8.5, 2.3, 4.7, 10.0, 5.9, 1.9, 8.7, 1.0, 5.0, 6.3, 11.3, 8.2, 2.2, 4.1, 6.2, 5.8, 0.0, 3.0, 3.7, 5.4, 12.7, 4.5, 1.5, 1.5], [11.1, 16.9, 11.9, 14.3, 14.2, 14.9, 17.8, 18.4, 18.7, 20.6, 6.8, 5.3, 2.5, 3.7, 5.2, 7.5, 6.3, 3.6, 6.4, 7.8, 3.7, 1.7, 6.4, 3.9, 2.7, 4.0, 9.0, 5.9, 5.1, 7.1, 3.2, 2.8, 3.0, 0.0, 3.6, 2.4, 7.8, 2.2, 2.3, 2.2], [13.9, 19.7, 14.7, 17.2, 17.0, 17.8, 20.6, 21.2, 21.5, 23.4, 9.6, 8.2, 3.2, 6.5, 8.0, 10.3, 9.1, 6.4, 9.3, 10.6, 6.5, 1.9, 9.2, 4.6, 5.6, 6.8, 11.8, 8.7, 5.8, 7.7, 5.0, 4.6, 3.7, 3.6, 0.0, 4.2, 9.6, 5.1, 3.0, 2.9], [13.5, 19.3, 11.3, 16.7, 16.6, 17.3, 20.2, 20.8, 21.1, 23.0, 9.2, 7.7, 4.9, 6.1, 7.6, 9.9, 8.7, 6.0, 8.8, 10.2, 6.1, 4.1, 8.8, 6.3, 5.1, 6.4, 9.2, 8.3, 7.5, 9.5, 3.0, 2.7, 5.4, 2.4, 4.2, 0.0, 7.7, 4.6, 4.7, 4.6], [7.0, 6.0, 3.8, 7.4, 7.4, 8.0, 8.7, 9.4, 9.6, 11.6, 8.2, 5.3, 12.2, 6.8, 12.3, 8.9, 5.8, 10.7, 13.5, 5.8, 3.9, 11.4, 7.8, 11.5, 7.7, 6.7, 1.5, 8.6, 12.8, 14.2, 4.8, 6.0, 12.7, 7.8, 9.6, 7.7, 0.0, 8.4, 12.0, 11.9], [9.1, 14.9, 9.9, 12.3, 12.2, 12.9, 15.8, 16.4, 16.7, 18.6, 4.8, 3.3, 4.0, 1.7, 4.1, 5.5, 4.3, 2.5, 5.3, 5.8, 2.6, 3.2, 4.4, 3.3, 0.7, 2.0, 7.0, 3.9, 4.5, 6.0, 5.4, 5.1, 4.5, 2.2, 5.1, 4.6, 8.4, 0.0, 3.8, 3.7], [12.6, 18.4, 13.4, 15.8, 15.7, 16.4, 19.3, 19.9, 20.2, 22.1, 8.3, 6.8, 1.0, 5.2, 4.1, 9.0, 7.8, 5.1, 7.9, 9.3, 5.2, 1.1, 7.9, 2.4, 4.2, 5.5, 10.5, 7.4, 3.6, 5.5, 5.4, 5.1, 1.5, 2.3, 3.0, 4.7, 12.0, 3.8, 0.0, 0.0], [12.6, 18.4, 13.4, 15.8, 15.7, 16.4, 19.2, 19.9, 20.1, 22.1, 8.3, 6.8, 1.0, 5.2, 4.2, 9.0, 7.8, 5.1, 7.9, 9.3, 5.2, 1.1, 7.9, 2.4, 4.2, 5.5, 10.5, 7.4, 3.6, 5.5, 5.4, 5.0, 1.5, 2.2, 2.9, 4.6, 11.9, 3.7, 0.0, 0.0]], "ingredients": [{"name": "meat", "ratio_tray_to_kg": 0.1}, {"name": "vegetables", "ratio_tray_to_kg": 0.2}], "E1_vehicles": [{"capacity": 800, "variable_cost": 0.7, "fixed_cost": 100000}, {"capacity": 800, "variable_cost": 0.7, "fixed_cost": 100000}, {"capacity": 800, "variable_cost": 0.7, "fixed_cost": 100000}, {"capacity": 800, "variable_cost": 0.7, "fixed_cost": 100000}, {"capacity": 800, "variable_cost": 0.7, "fixed_cost": 100000}, {"capacity": 800, "variable_cost": 0.7, "fixed_cost": 100000}, {"capacity": 800, "variable_cost": 0.7, "fixed_cost": 100000}, {"capacity": 800, "variable_cost": 0.7, "fixed_cost": 100000}, {"capacity": 800, "variable_cost": 0.7, "fixed_cost": 100000}, {"capacity": 800, "variable_cost": 0.7, "fixed_cost": 100000}], "E2_vehicles": [{"capacity": 1000, "variable_cost": 0.8, "fixed_cost": 289000}, {"capacity": 1000, "variable_cost": 0.8, "fixed_cost": 289000}, {"capacity": 1000, "variable_cost": 0.8, "fixed_cost": 289000}, {"capacity": 1000, "variable_cost": 0.8, "fixed_cost": 289000}, {"capacity": 1000, "variable_cost": 0.8, "fixed_cost": 289000}, {"capacity": 1000, "variable_cost": 0.8, "fixed_cost": 289000}, {"capacity": 1000, "variable_cost": 0.8, "fixed_cost": 289000}, {"capacity": 1000, "variable_cost": 0.8, "fixed_cost": 289000}, {"capacity": 1000, "variable_cost": 0.8, "fixed_cost": 289000}, {"capacity": 1000, "variable_cost": 0.8, "fixed_cost": 289000}, {"capacity": 1000, "variable_cost": 0.8, "fixed_cost": 289000}, {"capacity": 1000, "variable_cost": 0.8, "fixed_cost": 289000}, {"capacity": 1000, "variable_cost": 0.8, "fixed_cost": 289000}, {"capacity": 1000, "variable_cost": 0.8, "fixed_cost": 289000}, {"capacity": 1000, "variable_cost": 0.8, "fixed_cost": 289000}, {"capacity": 1000, "variable_cost": 0.8, "fixed_cost": 289000}, {"capacity": 1000, "variable_cost": 0.8, "fixed_cost": 289000}, {"capacity": 1000, "variable_cost": 0.8, "fixed_cost": 289000}, {"capacity": 1000, "variable_cost": 0.8, "fixed_cost": 289000}, {"capacity": 1000, "variable_cost": 0.8, "fixed_cost": 289000}]}