{"schools": [{"school_id": "50102295", "school_name": "SD NEGERI 4 NYALIAN", "demand": 114, "latitude": -8.4966742, "longitude": 115.3619044, "lunch_time": 570, "cluster": 1, "service_time": 50.6}, {"school_id": "50102314", "school_name": "SD NEGERI 3 NYALIAN", "demand": 66, "latitude": -8.499621000000001, "longitude": 115.3601401, "lunch_time": 570, "cluster": 1, "service_time": 31.4}, {"school_id": "50102360", "school_name": "SMP NEGERI 3 BANJARANGKAN", "demand": 388, "latitude": -8.5038377, "longitude": 115.3673942, "lunch_time": 720, "cluster": 1, "service_time": 160.2}, {"school_id": "50102364", "school_name": "SMP NEGERI 2 BANJARANGKAN", "demand": 383, "latitude": -8.52141, "longitude": 115.37994, "lunch_time": 720, "cluster": 1, "service_time": 158.2}, {"school_id": "50102394", "school_name": "SD NEGERI 1 NYALIAN", "demand": 130, "latitude": -8.4998468, "longitude": 115.3698246, "lunch_time": 570, "cluster": 1, "service_time": 57.0}, {"school_id": "50102412", "school_name": "SD NEGERI 1 BAKAS", "demand": 94, "latitude": -8.5201875, "longitude": 115.365219, "lunch_time": 570, "cluster": 1, "service_time": 42.6}, {"school_id": "50102414", "school_name": "SD NEGERI 1 AAN", "demand": 57, "latitude": -8.5011113, "longitude": 115.3761877, "lunch_time": 570, "cluster": 1, "service_time": 27.8}, {"school_id": "50102425", "school_name": "SD NEGERI 1 GETAKAN", "demand": 63, "latitude": -8.517765299999999, "longitude": 115.3754603, "lunch_time": 570, "cluster": 1, "service_time": 30.2}, {"school_id": "50102432", "school_name": "SD NEGERI 3 GETAKAN", "demand": 46, "latitude": -8.50574, "longitude": 115.37332, "lunch_time": 570, "cluster": 1, "service_time": 23.4}, {"school_id": "50102451", "school_name": "SD NEGERI 2 TIHINGAN", "demand": 56, "latitude": -8.5233659, "longitude": 115.3811264, "lunch_time": 570, "cluster": 1, "service_time": 27.4}, {"school_id": "50102462", "school_name": "SD NEGERI 2 BAKAS", "demand": 56, "latitude": -8.5214866, "longitude": 115.3592459, "lunch_time": 570, "cluster": 1, "service_time": 27.4}, {"school_id": "50102464", "school_name": "SD NEGERI 2 AAN", "demand": 89, "latitude": -8.511040399999999, "longitude": 115.3803198, "lunch_time": 570, "cluster": 1, "service_time": 40.6}, {"school_id": "50102469", "school_name": "SD NEGERI 2 NYALIAN", "demand": 86, "latitude": -8.4979745, "longitude": 115.3678715, "lunch_time": 570, "cluster": 1, "service_time": 39.4}, {"school_id": "50102477", "school_name": "SD NEGERI 2 GETAKAN", "demand": 66, "latitude": -8.527431, "longitude": 115.3782958, "lunch_time": 570, "cluster": 1, "service_time": 31.4}, {"school_id": "50102504", "school_name": "SD NEGERI 4 TAMANBALI", "demand": 85, "latitude": -8.4996987, "longitude": 115.3531742, "lunch_time": 570, "cluster": 1, "service_time": 39.0}, {"school_id": "50102551", "school_name": "SMP NEGERI 3 BANGLI", "demand": 684, "latitude": -8.494986899999999, "longitude": 115.3488746, "lunch_time": 720, "cluster": 1, "service_time": 278.6}, {"school_id": "50102569", "school_name": "SMKN 3 BANGLI", "demand": 143, "latitude": -8.500845, "longitude": 115.3494315, "lunch_time": 720, "cluster": 1, "service_time": 62.2}, {"school_id": "50102590", "school_name": "SD NEGERI 1 TAMANBALI", "demand": 150, "latitude": -8.5000916, "longitude": 115.3493389, "lunch_time": 570, "cluster": 1, "service_time": 65.0}, {"school_id": "50102603", "school_name": "SD NEGERI 2 BUNUTIN", "demand": 85, "latitude": -8.5178645, "longitude": 115.3458244, "lunch_time": 570, "cluster": 1, "service_time": 39.0}, {"school_id": "50102617", "school_name": "SD NEGERI 1 BUNUTIN", "demand": 74, "latitude": -8.504739299999999, "longitude": 115.3464479, "lunch_time": 570, "cluster": 1, "service_time": 34.6}, {"school_id": "50102637", "school_name": "SD NEGERI 3 TAMANBALI", "demand": 68, "latitude": -8.489925699999999, "longitude": 115.3495326, "lunch_time": 570, "cluster": 1, "service_time": 32.2}, {"school_id": "50102659", "school_name": "SD NEGERI 2 TAMANBALI", "demand": 124, "latitude": -8.5049441, "longitude": 115.3499108, "lunch_time": 570, "cluster": 1, "service_time": 54.6}, {"school_id": "50102673", "school_name": "SD NEGERI 3 DEMULIH", "demand": 73, "latitude": -8.5048313, "longitude": 115.3381836, "lunch_time": 570, "cluster": 1, "service_time": 34.2}, {"school_id": "50102676", "school_name": "SD NEGERI 3 BUNUTIN", "demand": 89, "latitude": -8.505997899999999, "longitude": 115.3446879, "lunch_time": 570, "cluster": 1, "service_time": 40.6}, {"school_id": "50105005", "school_name": "TK NEGERI ASTHA YOGA", "demand": 16, "latitude": -8.5014471, "longitude": 115.3489927, "lunch_time": 480, "cluster": 1, "service_time": 11.4}, {"school_id": "50105037", "school_name": "TK NEGERI GULIANG KAWAN", "demand": 83, "latitude": -8.5180628, "longitude": 115.3462651, "lunch_time": 480, "cluster": 1, "service_time": 38.2}, {"school_id": "69814402", "school_name": "TK NEGERI DESA BAKAS", "demand": 37, "latitude": -8.521331499999999, "longitude": 115.368006, "lunch_time": 480, "cluster": 1, "service_time": 19.8}, {"school_id": "69814407", "school_name": "TK NEGERI DESA GETAKAN", "demand": 50, "latitude": -8.5055067, "longitude": 115.3734956, "lunch_time": 480, "cluster": 1, "service_time": 25.0}, {"school_id": "69814418", "school_name": "TK NEGERI DESA AAN", "demand": 34, "latitude": -8.5092207, "longitude": 115.3804728, "lunch_time": 480, "cluster": 1, "service_time": 18.6}, {"school_id": "69814437", "school_name": "TK NEGERI DESA NYALIAN", "demand": 60, "latitude": -8.4977046, "longitude": 115.3635476, "lunch_time": 480, "cluster": 1, "service_time": 29.0}], "kitchens": [{"kitchen_name": "Jajan bali Bolu Begina", "latitude": -8.4983115, "longitude": 115.3639226, "type": "buffet_restaurant", "kitchen_id": "4efe796f-f4fe-4a22-8b66-5ea635918409", "capacity": 2000, "fixed_cost": 6000000, "maximum_vehicles": 2}, {"kitchen_name": "DE DAPOER", "latitude": -8.478743999999999, "longitude": 115.3710558, "type": "catering_service", "kitchen_id": "72144199-778a-4ca7-824e-60e1eef4d488", "capacity": 2000, "fixed_cost": 6000000, "maximum_vehicles": 2}, {"kitchen_name": "SPPG Klungkung Klungkung Semarapura Tengah", "latitude": -8.498361899999999, "longitude": 115.3997958, "type": "sppg", "kitchen_id": "f5726c40-a146-4cde-bc2a-33ea1a292803", "capacity": 2000, "fixed_cost": 6000000, "maximum_vehicles": 2}, {"kitchen_name": "Rumah Makan Muslim Alifia", "latitude": -8.4669855, "longitude": 115.3509091, "type": "buffet_restaurant", "kitchen_id": "3d066c30-eb3d-4def-bfca-d330ceab5994", "capacity": 2000, "fixed_cost": 6000000, "maximum_vehicles": 2}, {"kitchen_name": "Catering Cempaka Putih", "latitude": -8.492277399999999, "longitude": 115.402533, "type": "buffet_restaurant", "kitchen_id": "ea42b4bc-b5b8-4a88-b0b5-281bfc1b209b", "capacity": 2000, "fixed_cost": 6000000, "maximum_vehicles": 2}, {"kitchen_name": "Wija Kitchen", "latitude": -8.5333044, "longitude": 115.3252881, "type": "buffet_restaurant", "kitchen_id": "4b543236-edf0-455e-ad57-bf95afce6c10", "capacity": 2000, "fixed_cost": 6000000, "maximum_vehicles": 2}, {"kitchen_name": "WR.ASTUNGKARA", "latitude": -8.493199299999999, "longitude": 115.4053159, "type": "catering_service", "kitchen_id": "9793b91d-4ec3-44fa-bab2-7b4ab1aacedb", "capacity": 2000, "fixed_cost": 6000000, "maximum_vehicles": 2}, {"kitchen_name": "SPPG Bangli Bangli Kawan", "latitude": -8.4632769, "longitude": 115.3495195, "type": "sppg", "kitchen_id": "8473e9cc-154c-4ad3-916e-a9b6547ec4b3", "capacity": 2000, "fixed_cost": 6000000, "maximum_vehicles": 2}, {"kitchen_name": "SPPG Bangli Bangli Kawan 2", "latitude": -8.456176700402485, "longitude": 115.35312178911656, "type": "sppg", "kitchen_id": "f7c85d27-6fe1-4406-b205-8d6f107160a3", "capacity": 2000, "fixed_cost": 6000000, "maximum_vehicles": 2}, {"kitchen_name": "Kitchen 224 Klungkung", "latitude": -8.5395814, "longitude": 115.4053809, "type": "catering_service", "kitchen_id": "3e247fca-5837-457d-8215-dba9b21e78ba", "capacity": 2000, "fixed_cost": 6000000, "maximum_vehicles": 2}], "suppliers": [{"supplier_name": "Wr. Ajik kompor", "latitude": -8.499828899999999, "longitude": 115.3690001, "type": "market", "supplier_id": "63495e6b-7ea4-4906-8c8c-2c169118380f", "ingredient": "vegetables"}, {"supplier_name": "Ayam Potong Pondok Damar", "latitude": -8.4962226, "longitude": 115.3695858, "type": "butcher", "supplier_id": "7f8d9057-a0d3-4156-9d2f-ebd6d859911a", "ingredient": "meat"}, {"supplier_name": "Desa Wisata Guliang Kangin", "latitude": -8.5198074, "longitude": 115.3546051, "type": "butcher", "supplier_id": "2994a607-0288-4879-9cf4-a85a05abf2dd", "ingredient": "meat"}, {"supplier_name": "Pasar Taman Bali", "latitude": -8.5014035, "longitude": 115.348728, "type": "market", "supplier_id": "63f719ba-0475-4274-8d95-23f834a47144", "ingredient": "vegetables"}, {"supplier_name": "Warung Iga Bakar Pan Abi", "latitude": -8.494309699999999, "longitude": 115.3478416, "type": "butcher", "supplier_id": "3fcf3188-7321-40e1-bf2c-1f8e23334cc3", "ingredient": "meat"}, {"supplier_name": "RUMAH POTONG AYAM BUK REN", "latitude": -8.4737017, "longitude": 115.3517243, "type": "market", "supplier_id": "ba5c40d9-c1f0-4a7d-b555-78fc78c09fc4", "ingredient": "vegetables"}, {"supplier_name": "Ayam panggang angkling", "latitude": -8.5132582, "longitude": 115.3262647, "type": "butcher", "supplier_id": "1559f377-0ba3-4791-81d0-8f13962fb810", "ingredient": "meat"}, {"supplier_name": "PANDAN HARUM BANGLI", "latitude": -8.4729841, "longitude": 115.3506511, "type": "market", "supplier_id": "b6a57a48-86d2-4b1c-b94e-f199d95199f1", "ingredient": "vegetables"}, {"supplier_name": "GULING KRAMA", "latitude": -8.4718812, "longitude": 115.3513016, "type": "butcher", "supplier_id": "6265fc24-5cb2-4523-ae9f-0730e06008b3", "ingredient": "meat"}, {"supplier_name": "Babi Guling Jingga Konol", "latitude": -8.492060700000001, "longitude": 115.39631819999998, "type": "butcher", "supplier_id": "ec9e76cc-6f6f-420f-9325-fe6dcc0ff7d3", "ingredient": "meat"}], "first_echelon_matrix": [[0.0, 0.7, 14.0, 17.4, 18.6, 22.2, 19.6, 22.4, 22.5, 14.4, 0.9, 4.2, 13.1, 23.6, 14.8, 16.3, 15.0, 24.3, 24.9, 17.6], [0.7, 0.0, 14.6, 17.9, 19.2, 22.7, 20.1, 22.9, 23.1, 13.8, 1.4, 3.5, 12.5, 24.1, 14.2, 16.8, 14.3, 24.8, 25.5, 18.1], [14.0, 14.6, 0.0, 3.3, 4.6, 8.1, 13.5, 8.4, 8.5, 24.0, 14.4, 17.7, 22.4, 9.5, 22.9, 10.2, 23.1, 10.3, 10.9, 15.5], [17.4, 17.9, 3.3, 0.0, 1.3, 4.8, 15.6, 5.1, 5.2, 27.3, 17.7, 21.0, 25.7, 6.2, 26.2, 12.3, 26.4, 6.9, 7.6, 18.8], [18.6, 19.2, 4.6, 1.3, 0.0, 3.9, 16.8, 4.2, 4.3, 28.6, 19.0, 22.3, 27.0, 5.3, 27.5, 13.5, 27.7, 6.1, 6.7, 20.1], [22.2, 22.7, 8.1, 4.8, 3.9, 0.0, 20.4, 0.3, 0.4, 32.1, 22.5, 18.8, 30.5, 1.7, 31.0, 17.1, 31.2, 2.4, 3.1, 23.6], [19.6, 20.1, 13.5, 15.6, 16.8, 20.4, 0.0, 20.6, 20.7, 29.5, 19.9, 23.2, 27.9, 21.8, 28.4, 4.7, 28.6, 22.5, 16.8, 21.0], [22.4, 22.9, 8.4, 5.1, 4.2, 0.3, 20.6, 0.0, 0.4, 32.3, 22.8, 19.1, 30.8, 1.4, 31.3, 17.3, 31.4, 2.1, 3.3, 23.8], [22.5, 23.1, 8.5, 5.2, 4.3, 0.4, 20.7, 0.4, 0.0, 32.4, 22.9, 18.6, 30.9, 0.9, 31.4, 17.4, 31.5, 2.3, 2.9, 24.0], [14.4, 13.7, 24.1, 27.4, 28.7, 32.2, 29.6, 32.4, 32.6, 0.0, 14.7, 10.2, 1.7, 33.6, 1.3, 26.3, 1.7, 29.4, 27.6, 9.5], [0.9, 1.4, 14.4, 17.7, 19.0, 22.5, 19.9, 22.8, 22.9, 14.7, 0.0, 4.4, 13.4, 23.9, 15.1, 16.6, 15.2, 24.7, 25.3, 17.9], [4.2, 3.5, 17.7, 21.0, 22.3, 18.7, 23.2, 19.0, 18.6, 10.2, 4.4, 0.0, 9.0, 18.2, 10.6, 19.9, 10.8, 18.0, 16.2, 16.9], [13.1, 12.5, 22.5, 25.8, 27.1, 30.6, 28.0, 30.9, 31.0, 1.7, 13.4, 9.0, 0.0, 32.1, 1.7, 24.7, 1.8, 32.8, 28.0, 7.9], [23.6, 24.1, 9.6, 6.2, 5.3, 1.7, 21.8, 1.4, 0.9, 29.7, 23.9, 18.2, 32.0, 0.0, 28.3, 18.5, 32.6, 0.9, 2.1, 25.0], [14.8, 14.1, 23.0, 26.3, 27.6, 31.1, 28.5, 31.4, 31.5, 1.3, 15.1, 10.6, 1.7, 32.6, 0.0, 25.2, 0.6, 28.1, 26.3, 8.4], [16.4, 16.9, 10.4, 12.4, 13.7, 17.2, 4.7, 17.4, 17.5, 26.3, 16.7, 20.0, 24.8, 18.6, 25.2, 0.0, 25.4, 19.3, 20.0, 17.8], [15.0, 14.3, 23.2, 26.5, 27.8, 31.3, 28.7, 31.6, 31.7, 1.7, 15.3, 10.8, 1.8, 32.7, 0.6, 25.4, 0.0, 28.8, 26.9, 8.6], [24.2, 24.8, 10.2, 6.9, 6.0, 2.4, 22.4, 2.6, 2.2, 29.4, 24.6, 17.9, 32.6, 0.9, 28.1, 19.1, 28.7, 0.0, 1.8, 25.7], [25.0, 25.5, 10.9, 7.6, 6.7, 3.1, 16.8, 3.3, 2.9, 27.6, 25.3, 16.1, 27.9, 2.1, 26.3, 19.9, 26.9, 1.8, 0.0, 26.4], [17.7, 18.3, 15.6, 18.9, 20.2, 23.7, 21.1, 24.0, 24.1, 9.5, 18.1, 16.9, 8.0, 25.2, 8.5, 17.8, 8.6, 25.9, 26.5, 0.0]], "second_echelon_matrix": [[0.0, 4.4, 13.4, 23.9, 15.1, 16.6, 15.2, 24.7, 25.3, 17.9, 0.7, 0.9, 1.5, 8.0, 1.0, 4.2, 10.3, 6.6, 9.0, 8.4, 5.0, 8.6, 0.8, 8.6, 18.8, 18.8, 17.9, 18.1, 16.2, 18.4, 19.7, 17.1, 20.7, 18.3, 17.7, 16.2, 4.9, 9.1, 8.9, 0.2], [4.4, 0.0, 9.0, 18.2, 10.6, 19.9, 10.8, 18.0, 16.2, 16.9, 4.8, 5.2, 4.8, 10.7, 4.3, 7.5, 7.1, 9.9, 7.7, 11.2, 8.7, 8.9, 3.7, 11.9, 22.1, 22.1, 21.2, 21.4, 19.5, 21.7, 22.9, 20.4, 24.0, 21.6, 21.0, 19.5, 8.2, 7.7, 8.6, 4.4], [13.4, 9.0, 0.0, 32.1, 1.7, 24.7, 1.8, 32.8, 28.0, 7.9, 13.8, 14.2, 13.7, 12.4, 13.3, 20.7, 8.9, 13.7, 9.5, 12.0, 21.4, 7.0, 12.6, 11.9, 26.9, 26.9, 26.0, 26.2, 24.3, 26.5, 27.8, 25.2, 28.8, 26.4, 25.8, 24.3, 16.0, 9.5, 6.9, 13.4], [23.9, 18.2, 32.0, 0.0, 28.3, 18.5, 32.6, 0.9, 2.1, 25.0, 24.7, 24.5, 22.6, 22.5, 23.7, 19.7, 26.2, 22.4, 24.9, 22.1, 20.4, 24.3, 23.6, 22.0, 7.2, 5.2, 6.3, 6.2, 9.5, 7.3, 4.3, 6.9, 12.6, 7.8, 6.3, 9.6, 20.0, 24.9, 24.6, 24.3], [15.1, 10.6, 1.7, 32.6, 0.0, 25.2, 0.6, 28.1, 26.3, 8.4, 15.5, 15.9, 19.3, 12.9, 14.9, 21.2, 10.5, 14.2, 11.2, 12.5, 21.9, 8.6, 14.3, 12.4, 27.4, 27.4, 26.5, 26.7, 24.8, 27.0, 28.3, 25.7, 29.3, 26.9, 26.3, 24.8, 16.5, 11.1, 8.6, 15.1], [16.7, 20.0, 24.8, 18.6, 25.2, 0.0, 25.4, 19.3, 20.0, 17.8, 17.5, 17.3, 15.4, 15.3, 16.5, 12.5, 18.9, 15.2, 17.6, 14.9, 13.2, 17.1, 16.4, 14.8, 13.5, 13.5, 12.5, 12.8, 9.1, 11.3, 14.3, 12.3, 8.0, 11.2, 12.4, 9.1, 12.8, 17.7, 17.4, 17.0], [15.3, 10.8, 1.8, 32.7, 0.6, 25.4, 0.0, 28.8, 26.9, 8.6, 15.6, 16.0, 19.4, 13.0, 15.1, 21.4, 10.7, 14.3, 11.3, 12.7, 22.1, 8.8, 14.5, 12.6, 27.6, 27.6, 26.7, 26.9, 25.0, 27.2, 28.5, 25.9, 29.5, 27.1, 26.5, 25.0, 16.6, 11.3, 8.8, 15.2], [24.6, 17.9, 32.6, 0.9, 28.1, 19.1, 28.7, 0.0, 1.8, 25.7, 25.3, 25.2, 23.2, 23.1, 24.4, 20.4, 26.8, 23.0, 25.5, 22.8, 21.1, 24.9, 24.2, 22.7, 7.9, 5.8, 6.9, 6.8, 10.1, 7.9, 5.0, 7.5, 13.2, 8.4, 6.9, 10.3, 20.6, 25.5, 25.2, 24.9], [25.3, 16.1, 27.9, 2.1, 26.3, 19.9, 26.9, 1.8, 0.0, 26.4, 26.0, 25.9, 23.9, 23.8, 25.1, 21.1, 26.1, 23.7, 26.2, 23.5, 21.8, 25.6, 24.9, 23.4, 8.6, 6.6, 7.7, 7.6, 10.8, 8.6, 5.7, 8.2, 13.3, 9.1, 7.6, 11.0, 21.4, 26.3, 26.0, 25.6], [18.1, 16.9, 8.0, 25.2, 8.5, 17.8, 8.6, 25.9, 26.5, 0.0, 18.8, 18.7, 16.7, 6.6, 17.8, 13.8, 10.6, 7.9, 10.3, 6.2, 14.5, 8.4, 17.7, 6.1, 20.0, 20.0, 19.1, 19.3, 17.4, 19.6, 20.9, 18.3, 21.9, 19.5, 18.9, 17.4, 10.2, 10.4, 8.7, 18.4], [0.7, 4.8, 13.8, 24.6, 15.5, 17.3, 15.6, 25.4, 26.0, 18.7, 0.0, 0.9, 2.2, 8.7, 1.7, 5.0, 11.1, 7.3, 9.8, 9.1, 5.0, 9.3, 1.2, 9.3, 19.5, 19.5, 18.6, 18.8, 16.9, 19.1, 20.4, 17.8, 21.4, 19.0, 18.4, 16.9, 5.6, 9.8, 9.6, 0.5], [1.0, 5.2, 14.2, 24.5, 15.9, 17.2, 16.0, 25.2, 25.9, 18.5, 0.9, 0.0, 2.6, 9.1, 2.1, 5.3, 11.4, 7.7, 10.1, 9.5, 4.2, 9.7, 1.6, 9.7, 19.4, 19.4, 18.5, 18.7, 16.8, 19.0, 20.2, 17.7, 21.3, 18.9, 18.3, 16.8, 5.6, 10.2, 10.0, 0.8], [1.5, 4.8, 13.7, 22.6, 15.4, 15.2, 15.6, 23.3, 23.9, 16.6, 2.2, 2.6, 0.0, 6.6, 0.9, 2.9, 9.0, 5.2, 7.7, 7.0, 4.0, 7.2, 1.1, 7.2, 17.4, 17.4, 16.5, 16.7, 14.8, 17.0, 18.3, 15.7, 19.3, 16.9, 16.3, 14.8, 3.5, 7.7, 7.5, 1.8], [8.0, 10.7, 12.3, 25.0, 12.8, 17.7, 13.0, 25.7, 26.3, 6.6, 8.7, 9.1, 6.6, 0.0, 7.8, 4.2, 4.0, 1.5, 4.0, 0.4, 5.3, 1.8, 7.6, 2.0, 19.8, 19.8, 18.9, 19.1, 17.2, 19.4, 20.7, 18.1, 21.7, 19.3, 18.7, 17.2, 3.8, 4.0, 2.1, 8.3], [1.0, 4.3, 13.3, 23.7, 14.9, 16.4, 15.1, 24.4, 25.1, 17.7, 1.7, 2.1, 0.9, 7.8, 0.0, 4.0, 10.1, 6.3, 8.8, 8.2, 5.2, 8.4, 0.6, 8.3, 18.6, 18.6, 17.6, 17.9, 16.0, 18.2, 19.4, 16.8, 20.5, 18.1, 17.5, 15.9, 4.7, 8.8, 8.7, 1.3], [4.2, 7.5, 20.6, 19.7, 21.1, 12.4, 21.3, 20.4, 21.0, 13.7, 5.0, 5.3, 2.9, 4.2, 4.0, 0.0, 6.6, 2.8, 5.3, 4.7, 1.2, 4.9, 3.9, 4.8, 14.6, 14.6, 13.6, 13.8, 12.0, 14.2, 15.4, 12.8, 16.5, 14.1, 13.4, 11.9, 0.8, 5.3, 5.2, 4.5], [10.3, 7.1, 10.4, 26.1, 12.1, 18.8, 12.3, 26.9, 26.6, 10.4, 11.1, 11.4, 9.0, 3.8, 10.1, 6.6, 0.0, 3.8, 1.3, 4.2, 7.6, 2.0, 10.0, 5.9, 21.0, 21.0, 20.1, 20.3, 18.4, 20.6, 21.9, 19.3, 22.9, 20.5, 19.9, 18.4, 6.2, 1.3, 1.7, 10.6], [6.6, 9.9, 13.6, 22.4, 14.1, 15.0, 14.3, 23.1, 23.7, 7.9, 7.3, 7.7, 5.2, 1.5, 6.3, 2.8, 3.8, 0.0, 2.5, 1.9, 3.9, 2.1, 6.2, 2.1, 17.2, 17.2, 16.3, 16.5, 14.6, 16.8, 18.1, 15.5, 19.1, 16.7, 16.1, 14.6, 2.4, 2.5, 2.4, 6.9], [9.0, 7.7, 9.5, 24.8, 11.2, 17.5, 11.3, 25.6, 26.2, 10.4, 9.8, 10.1, 7.7, 4.0, 8.8, 5.3, 1.3, 2.5, 0.0, 4.4, 6.3, 2.8, 8.7, 4.6, 19.7, 19.7, 18.8, 19.0, 17.1, 19.3, 20.6, 18.0, 21.6, 19.2, 18.6, 17.1, 4.9, 0.0, 2.5, 9.4], [8.4, 11.2, 12.0, 24.6, 12.5, 17.3, 12.6, 25.3, 26.0, 6.2, 9.1, 9.5, 7.0, 0.4, 8.2, 4.7, 4.4, 1.9, 4.4, 0.0, 5.7, 2.2, 8.0, 1.6, 19.5, 19.5, 18.6, 18.8, 16.9, 19.1, 20.3, 17.8, 21.4, 19.0, 18.4, 16.9, 4.2, 4.4, 2.5, 8.7], [5.2, 8.7, 21.3, 20.4, 21.8, 13.1, 22.0, 21.1, 21.7, 14.4, 5.0, 4.2, 4.0, 5.3, 5.2, 1.2, 7.6, 3.9, 6.3, 5.7, 0.0, 5.9, 5.0, 5.9, 15.3, 15.3, 14.3, 14.5, 12.7, 14.9, 16.1, 13.5, 17.2, 14.8, 14.1, 12.6, 1.5, 6.4, 6.2, 5.0], [8.6, 8.9, 7.0, 26.8, 8.6, 19.4, 8.8, 27.5, 28.1, 8.4, 9.3, 9.7, 7.2, 1.8, 8.4, 4.9, 2.2, 2.1, 2.8, 2.2, 5.9, 0.0, 8.2, 3.8, 21.6, 21.6, 20.7, 20.9, 19.0, 21.2, 22.5, 19.9, 23.5, 21.1, 20.5, 19.0, 4.4, 2.8, 0.3, 8.9], [0.8, 3.7, 12.6, 23.5, 14.3, 16.2, 14.5, 24.3, 24.9, 17.6, 1.2, 1.6, 1.1, 7.6, 0.6, 3.9, 10.0, 6.2, 8.7, 8.0, 5.0, 8.2, 0.0, 8.2, 18.4, 18.4, 17.5, 17.7, 15.8, 18.0, 19.3, 16.7, 20.3, 17.9, 17.3, 15.8, 4.5, 8.7, 8.5, 0.8], [8.6, 11.9, 11.9, 24.5, 12.4, 17.2, 12.5, 25.2, 25.9, 6.1, 9.3, 9.7, 7.2, 2.0, 8.3, 4.8, 5.9, 2.1, 4.6, 1.6, 5.9, 3.8, 8.2, 0.0, 19.4, 19.4, 18.5, 18.7, 16.8, 19.0, 20.2, 17.7, 21.3, 18.9, 18.3, 16.7, 4.4, 4.6, 4.1, 8.9], [18.8, 22.1, 26.8, 7.2, 27.3, 13.3, 27.5, 7.9, 8.6, 19.9, 19.5, 19.4, 17.4, 17.3, 18.6, 14.6, 21.0, 17.2, 19.7, 17.0, 15.3, 19.1, 18.4, 16.9, 0.0, 2.1, 0.9, 1.0, 4.3, 2.1, 2.9, 1.7, 7.4, 2.6, 1.1, 4.5, 14.8, 19.7, 19.4, 19.1], [18.8, 22.1, 26.8, 5.2, 27.3, 13.3, 27.5, 5.9, 6.5, 19.9, 19.5, 19.4, 17.4, 17.3, 18.6, 14.6, 21.0, 17.2, 19.7, 17.0, 15.3, 19.1, 18.4, 16.9, 2.1, 0.0, 1.1, 1.0, 4.3, 2.1, 0.9, 1.7, 7.4, 2.6, 1.1, 4.5, 14.8, 19.7, 19.4, 19.1], [17.9, 21.2, 25.9, 6.3, 26.4, 12.4, 26.6, 7.0, 7.6, 19.0, 18.6, 18.5, 16.5, 16.4, 17.6, 13.6, 20.1, 16.3, 18.8, 16.1, 14.3, 18.2, 17.5, 15.9, 0.9, 1.1, 0.0, 0.2, 3.4, 1.2, 2.0, 0.8, 6.5, 1.7, 0.2, 3.5, 13.9, 18.8, 18.5, 18.2], [18.1, 21.4, 26.1, 6.2, 26.6, 12.6, 26.8, 6.9, 7.5, 19.2, 18.8, 18.7, 16.7, 16.6, 17.9, 13.8, 20.3, 16.5, 19.0, 16.3, 14.5, 18.4, 17.7, 16.2, 1.0, 1.0, 0.2, 0.0, 3.6, 1.4, 1.9, 1.0, 6.7, 1.9, 0.4, 3.8, 14.1, 19.0, 18.7, 18.4], [16.2, 19.5, 24.2, 9.5, 24.7, 9.0, 24.9, 10.2, 10.8, 17.3, 16.9, 16.8, 14.8, 14.7, 16.0, 12.0, 18.4, 14.6, 17.1, 14.4, 12.7, 16.5, 15.8, 14.3, 4.3, 4.3, 3.4, 3.6, 0.0, 2.2, 5.2, 3.1, 6.4, 2.1, 3.2, 0.1, 12.2, 17.1, 16.8, 16.5], [18.4, 21.7, 26.4, 7.3, 26.9, 11.2, 27.1, 8.0, 8.6, 19.5, 19.1, 19.0, 17.0, 16.9, 18.2, 14.2, 20.6, 16.8, 19.3, 16.6, 14.9, 18.7, 18.0, 16.5, 2.1, 2.1, 1.2, 1.4, 2.2, 0.0, 3.0, 0.9, 5.3, 0.5, 1.0, 2.3, 14.4, 19.3, 19.0, 18.7], [19.7, 22.9, 27.7, 4.3, 28.2, 14.2, 28.3, 5.0, 5.7, 20.7, 20.4, 20.2, 18.3, 18.2, 19.4, 15.4, 21.9, 18.1, 20.6, 17.8, 16.1, 20.0, 19.3, 17.7, 2.9, 0.9, 2.0, 1.9, 5.2, 3.0, 0.0, 2.6, 8.3, 3.5, 2.0, 5.3, 15.7, 20.6, 20.3, 20.0], [17.1, 20.4, 25.1, 6.8, 25.6, 12.1, 25.8, 7.6, 8.2, 18.2, 17.8, 17.7, 15.7, 15.6, 16.8, 12.8, 19.3, 15.5, 18.0, 15.3, 13.5, 17.4, 16.7, 15.1, 1.7, 1.7, 0.8, 1.0, 3.1, 0.9, 2.6, 0.0, 6.2, 1.4, 0.6, 3.3, 13.1, 18.0, 17.7, 17.4], [20.7, 24.0, 28.7, 12.6, 29.2, 7.8, 29.4, 13.3, 13.3, 21.8, 21.4, 21.3, 19.3, 19.2, 20.5, 16.5, 22.9, 19.1, 21.6, 18.9, 17.2, 21.0, 20.3, 18.8, 7.4, 7.4, 6.5, 6.7, 6.4, 5.3, 8.3, 6.2, 0.0, 4.7, 6.3, 6.5, 16.7, 21.6, 21.3, 21.0], [18.3, 21.6, 26.3, 7.7, 26.8, 11.1, 27.0, 8.5, 9.1, 19.4, 19.0, 18.9, 16.9, 16.8, 18.1, 14.1, 20.5, 16.7, 19.2, 16.5, 14.8, 18.6, 17.9, 16.4, 2.6, 2.6, 1.7, 1.9, 2.1, 0.5, 3.5, 1.4, 4.7, 0.0, 1.5, 2.2, 14.3, 19.2, 19.0, 18.6], [17.7, 21.0, 25.7, 6.2, 26.2, 12.2, 26.4, 7.0, 7.6, 18.8, 18.4, 18.3, 16.3, 16.2, 17.5, 13.4, 19.9, 16.1, 18.6, 15.9, 14.1, 18.0, 17.3, 15.8, 1.1, 1.1, 0.2, 0.4, 3.2, 1.0, 2.0, 0.6, 6.3, 1.5, 0.0, 3.4, 13.7, 18.6, 18.3, 18.0], [16.2, 19.5, 24.2, 9.6, 24.7, 9.0, 24.8, 10.3, 11.0, 17.3, 16.9, 16.8, 14.8, 14.7, 15.9, 11.9, 18.4, 14.6, 17.1, 14.3, 12.6, 16.5, 15.8, 14.2, 4.5, 4.5, 3.5, 3.8, 0.1, 2.3, 5.3, 3.3, 6.5, 2.2, 3.4, 0.0, 12.2, 17.1, 16.8, 16.5], [4.9, 8.2, 15.9, 20.0, 16.4, 12.6, 16.6, 20.7, 21.3, 10.2, 5.6, 5.6, 3.5, 3.8, 4.7, 0.8, 6.2, 2.4, 4.9, 4.2, 1.5, 4.4, 4.5, 4.4, 14.8, 14.8, 13.9, 14.1, 12.2, 14.4, 15.7, 13.1, 16.7, 14.3, 13.7, 12.2, 0.0, 4.9, 4.7, 5.2], [9.1, 7.7, 9.5, 24.9, 11.1, 17.6, 11.3, 25.6, 26.2, 10.4, 9.8, 10.2, 7.7, 4.0, 8.8, 5.3, 1.3, 2.5, 0.0, 4.4, 6.4, 2.8, 8.7, 4.6, 19.7, 19.7, 18.8, 19.0, 17.1, 19.3, 20.6, 18.0, 21.6, 19.2, 18.6, 17.1, 4.9, 0.0, 2.5, 9.4], [8.9, 8.6, 7.0, 27.1, 8.6, 19.8, 8.8, 27.8, 28.4, 8.7, 9.6, 10.0, 7.5, 2.1, 8.7, 5.2, 1.9, 2.4, 2.5, 2.5, 6.2, 0.3, 8.5, 4.1, 22.0, 22.0, 21.0, 21.2, 19.4, 21.6, 22.8, 20.2, 23.8, 21.5, 20.8, 19.3, 4.7, 2.5, 0.0, 9.2], [0.2, 4.4, 13.4, 24.2, 15.1, 16.9, 15.2, 25.0, 25.6, 18.2, 0.5, 0.8, 1.8, 8.3, 1.3, 4.5, 10.6, 6.9, 9.4, 8.7, 5.0, 8.9, 0.8, 8.9, 19.1, 19.1, 18.2, 18.4, 16.5, 18.7, 20.0, 17.4, 21.0, 18.6, 18.0, 16.5, 5.2, 9.4, 9.2, 0.0]], "ingredients": [{"name": "meat", "ratio_tray_to_kg": 0.1}, {"name": "vegetables", "ratio_tray_to_kg": 0.2}], "E1_vehicles": [{"capacity": 800, "variable_cost": 0.7, "fixed_cost": 100000}, {"capacity": 800, "variable_cost": 0.7, "fixed_cost": 100000}, {"capacity": 800, "variable_cost": 0.7, "fixed_cost": 100000}, {"capacity": 800, "variable_cost": 0.7, "fixed_cost": 100000}, {"capacity": 800, "variable_cost": 0.7, "fixed_cost": 100000}, {"capacity": 800, "variable_cost": 0.7, "fixed_cost": 100000}, {"capacity": 800, "variable_cost": 0.7, "fixed_cost": 100000}, {"capacity": 800, "variable_cost": 0.7, "fixed_cost": 100000}, {"capacity": 800, "variable_cost": 0.7, "fixed_cost": 100000}, {"capacity": 800, "variable_cost": 0.7, "fixed_cost": 100000}], "E2_vehicles": [{"capacity": 1000, "variable_cost": 0.8, "fixed_cost": 289000}, {"capacity": 1000, "variable_cost": 0.8, "fixed_cost": 289000}, {"capacity": 1000, "variable_cost": 0.8, "fixed_cost": 289000}, {"capacity": 1000, "variable_cost": 0.8, "fixed_cost": 289000}, {"capacity": 1000, "variable_cost": 0.8, "fixed_cost": 289000}, {"capacity": 1000, "variable_cost": 0.8, "fixed_cost": 289000}, {"capacity": 1000, "variable_cost": 0.8, "fixed_cost": 289000}, {"capacity": 1000, "variable_cost": 0.8, "fixed_cost": 289000}, {"capacity": 1000, "variable_cost": 0.8, "fixed_cost": 289000}, {"capacity": 1000, "variable_cost": 0.8, "fixed_cost": 289000}, {"capacity": 1000, "variable_cost": 0.8, "fixed_cost": 289000}, {"capacity": 1000, "variable_cost": 0.8, "fixed_cost": 289000}, {"capacity": 1000, "variable_cost": 0.8, "fixed_cost": 289000}, {"capacity": 1000, "variable_cost": 0.8, "fixed_cost": 289000}, {"capacity": 1000, "variable_cost": 0.8, "fixed_cost": 289000}, {"capacity": 1000, "variable_cost": 0.8, "fixed_cost": 289000}, {"capacity": 1000, "variable_cost": 0.8, "fixed_cost": 289000}, {"capacity": 1000, "variable_cost": 0.8, "fixed_cost": 289000}, {"capacity": 1000, "variable_cost": 0.8, "fixed_cost": 289000}, {"capacity": 1000, "variable_cost": 0.8, "fixed_cost": 289000}]}