{"schools": [{"school_id": "50102684", "school_name": "SD NEGERI 4 ANTIGA", "demand": 121, "latitude": -8.5105936, "longitude": 115.4968522, "lunch_time": 570, "cluster": 9}, {"school_id": "50102690", "school_name": "SD NEGERI 5 GEGELANG", "demand": 66, "latitude": -8.5027571, "longitude": 115.4800165, "lunch_time": 570, "cluster": 9}, {"school_id": "50102692", "school_name": "SD NEGERI 4 ULAKAN", "demand": 75, "latitude": -8.485527, "longitude": 115.5045516, "lunch_time": 570, "cluster": 9}, {"school_id": "50102703", "school_name": "SD NEGERI 5 MANGGIS", "demand": 60, "latitude": -8.4868449, "longitude": 115.5313561, "lunch_time": 570, "cluster": 9}, {"school_id": "50102706", "school_name": "SD NEGERI 5 ULAKAN", "demand": 76, "latitude": -8.500054, "longitude": 115.5130816, "lunch_time": 570, "cluster": 9}, {"school_id": "50102708", "school_name": "SD NEGERI 5 ANTIGA", "demand": 68, "latitude": -8.4906016, "longitude": 115.4860632, "lunch_time": 570, "cluster": 9}, {"school_id": "50102731", "school_name": "SD NEGERI 3 ULAKAN", "demand": 119, "latitude": -8.5047569, "longitude": 115.5077247, "lunch_time": 570, "cluster": 9}, {"school_id": "50102734", "school_name": "SD NEGERI 3 ANTIGA", "demand": 118, "latitude": -8.5359775, "longitude": 115.4951692, "lunch_time": 570, "cluster": 9}, {"school_id": "50102748", "school_name": "SD NEGERI 4 MANGGIS", "demand": 84, "latitude": -8.4928105, "longitude": 115.5245997, "lunch_time": 570, "cluster": 9}, {"school_id": "50102766", "school_name": "SD NEGERI 4 GEGELANG", "demand": 126, "latitude": -8.5286557, "longitude": 115.4863586, "lunch_time": 570, "cluster": 9}, {"school_id": "50102768", "school_name": "SD NEGERI 6 GEGELANG", "demand": 101, "latitude": -8.4889493, "longitude": 115.4779761, "lunch_time": 570, "cluster": 9}, {"school_id": "50102791", "school_name": "SMP NEGERI 1 MANGGIS", "demand": 742, "latitude": -8.5040839, "longitude": 115.5062321, "lunch_time": 720, "cluster": 9}, {"school_id": "50102810", "school_name": "SMP NEGERI 2 MANGGIS", "demand": 634, "latitude": -8.4870033, "longitude": 115.5291145, "lunch_time": 720, "cluster": 9}, {"school_id": "50102812", "school_name": "SMP NEGERI 3 MANGGIS", "demand": 804, "latitude": -8.5184113, "longitude": 115.4886649, "lunch_time": 720, "cluster": 9}, {"school_id": "50102817", "school_name": "SD NEGERI 7 GEGELANG", "demand": 49, "latitude": -8.5056931, "longitude": 115.4755701, "lunch_time": 570, "cluster": 9}, {"school_id": "50102834", "school_name": "SD NEGERI 3 ANTIGA KELOD", "demand": 137, "latitude": -8.5359775, "longitude": 115.4951692, "lunch_time": 570, "cluster": 9}, {"school_id": "50102852", "school_name": "SD NEGERI 4 ANTIGA KELOD", "demand": 131, "latitude": -8.5105936, "longitude": 115.4968522, "lunch_time": 570, "cluster": 9}, {"school_id": "50102869", "school_name": "SD NEGERI 1 MANGGIS", "demand": 150, "latitude": -8.4866332, "longitude": 115.5246801, "lunch_time": 570, "cluster": 9}, {"school_id": "50102879", "school_name": "SD NEGERI 6 ANTIGA", "demand": 104, "latitude": -8.5133145, "longitude": 115.4978113, "lunch_time": 570, "cluster": 9}, {"school_id": "50102887", "school_name": "SD NEGERI 1 ULAKAN", "demand": 150, "latitude": -8.4996191, "longitude": 115.5080642, "lunch_time": 570, "cluster": 9}, {"school_id": "50102926", "school_name": "SD NEGERI 1 GEGELANG", "demand": 89, "latitude": -8.4980654, "longitude": 115.4763169, "lunch_time": 570, "cluster": 9}, {"school_id": "50102963", "school_name": "SD NEGERI 2 ULAKAN", "demand": 61, "latitude": -8.490002400000002, "longitude": 115.5050223, "lunch_time": 570, "cluster": 9}, {"school_id": "50102976", "school_name": "SD NEGERI 3 MANGGIS", "demand": 100, "latitude": -8.486489299999999, "longitude": 115.5161705, "lunch_time": 570, "cluster": 9}, {"school_id": "50102981", "school_name": "SD NEGERI 3 GEGELANG", "demand": 105, "latitude": -8.485908000000002, "longitude": 115.4766811, "lunch_time": 570, "cluster": 9}, {"school_id": "50102995", "school_name": "SD NEGERI 2 MANGGIS", "demand": 64, "latitude": -8.4790744, "longitude": 115.5201153, "lunch_time": 570, "cluster": 9}, {"school_id": "50102997", "school_name": "SD NEGERI 2 GEGELANG", "demand": 92, "latitude": -8.51619, "longitude": 115.485485, "lunch_time": 570, "cluster": 9}, {"school_id": "50103026", "school_name": "SD NEGERI 2 PADANGBAI", "demand": 167, "latitude": -8.5328813, "longitude": 115.5063844, "lunch_time": 570, "cluster": 9}, {"school_id": "50103670", "school_name": "SMA NEGERI 1 MANGGIS", "demand": 629, "latitude": -8.5047257, "longitude": 115.5070393, "lunch_time": 720, "cluster": 9}, {"school_id": "50103677", "school_name": "SMKN 1 MANGGIS", "demand": 1098, "latitude": -8.5200858, "longitude": 115.4974625, "lunch_time": 720, "cluster": 9}, {"school_id": "50103797", "school_name": "SD NEGERI 4 MENANGA", "demand": 42, "latitude": -8.5105936, "longitude": 115.4968522, "lunch_time": 570, "cluster": 9}], "kitchens": [{"kitchen_name": "SPPG Karangasem Manggis Ulakan", "latitude": -8.4976966, "longitude": 115.5141475, "type": "sppg"}, {"kitchen_name": "SPPG Klungkung Dawan Gunaksa", "latitude": -8.5450991, "longitude": 115.4205393, "type": "sppg"}, {"kitchen_name": "WR.ASTUNGKARA", "latitude": -8.493199299999999, "longitude": 115.4053159, "type": "catering_service"}, {"kitchen_name": "Catering Cempaka Putih", "latitude": -8.492277399999999, "longitude": 115.402533, "type": "buffet_restaurant"}, {"kitchen_name": "SPPG Klungkung Klungkung Semarapura Tengah", "latitude": -8.498361899999999, "longitude": 115.3997958, "type": "sppg"}, {"kitchen_name": "Sekar Bali Catering", "latitude": -8.545789599999999, "longitude": 115.40869569999998, "type": "catering_service"}, {"kitchen_name": "Kitchen 224 Klungkung", "latitude": -8.5395814, "longitude": 115.4053809, "type": "catering_service"}, {"kitchen_name": "Jajanan LakLak Manohara", "latitude": -8.4472478, "longitude": 115.4118797, "type": "buffet_restaurant"}, {"kitchen_name": "Martabak 26", "latitude": -8.456632200000001, "longitude": 115.5978277, "type": "buffet_restaurant"}, {"kitchen_name": "Mahagiri Panoramic Resort & Restaurant", "latitude": -8.423208899999999, "longitude": 115.4282001, "type": "buffet_restaurant"}], "suppliers": [{"supplier_name": "Pura dalem Ulakan", "latitude": -8.5091235, "longitude": 115.5029893, "type": "market"}, {"supplier_name": "Pasar Ulakan", "latitude": -8.4997702, "longitude": 115.5068549, "type": "market"}, {"supplier_name": "Jual telur, ayam dan ayam panggang", "latitude": -8.5007687, "longitude": 115.5111533, "type": "butcher"}, {"supplier_name": "Buk kinten babi guling", "latitude": -8.5146026, "longitude": 115.4976564, "type": "butcher"}, {"supplier_name": "MANGOSTEEN MARKET", "latitude": -8.493528399999999, "longitude": 115.52025, "type": "market"}, {"supplier_name": "Dagang pesan sate lilit", "latitude": -8.5251909, "longitude": 115.4885335, "type": "butcher"}, {"supplier_name": "Gus yasa farm", "latitude": -8.486008499999999, "longitude": 115.5204946, "type": "market"}, {"supplier_name": "KAPRIYONO (babi guling, ayam panggang)", "latitude": -8.4823547, "longitude": 115.5182496, "type": "butcher"}, {"supplier_name": "Ayam panggang pak mang kecik", "latitude": -8.523981, "longitude": 115.4621806, "type": "butcher"}, {"supplier_name": "Secret babi guling", "latitude": -8.4786752, "longitude": 115.5367043, "type": "butcher"}], "first_echelon_matrix": [[0, 1251.7, 1684.8, 854.5, 2930.8, 3923.7, 4523.6, 4373.5, 11806.6, 6071.9, 2103.4, 12974, 20899.7, 20792.7, 20462.5, 16287.2, 16085.1, 27319.2, 21052.5, 31968], [1251.7, 0, 433.2, 2106.2, 1679.1, 5175.4, 3271.9, 3121.9, 13058.3, 4820.2, 851.8, 14225.7, 22151.4, 22044.3, 21714.2, 17538.8, 17336.8, 28570.9, 19800.8, 33219.7], [1684.8, 433.2, 0, 2539.3, 1246, 5608.5, 2838.7, 2688.7, 13491.5, 4387.1, 418.6, 14658.8, 22584.6, 22477.5, 22147.4, 17972, 17770, 29004, 19367.6, 33652.9], [854.5, 2106.2, 2539.3, 0, 3785.3, 3069.2, 5378.1, 5228, 10952.1, 6926.4, 2957.9, 12119.5, 20045.3, 19938.2, 19608, 15432.7, 15230.7, 26464.7, 21907, 31113.5], [2930.8, 1679.1, 1246, 3785.3, 0, 6854.5, 1639.5, 2212.4, 14737.4, 3187.9, 864.9, 15904.8, 23830.6, 23723.5, 23393.3, 19218, 19016, 30250, 18168.4, 34898.8], [3923.7, 5175.4, 5608.5, 3069.2, 6854.5, 0, 8447.3, 8297.2, 9642.2, 9995.6, 6027.1, 10809.6, 18735.3, 18628.3, 18298.1, 14122.8, 13920.7, 25154.8, 24976.2, 29803.6], [3899.6, 2647.9, 2214.7, 4754.1, 1674, 7823.2, 0, 572.9, 15706.2, 2432.5, 1833.6, 16873.5, 24799.3, 24692.2, 24362.1, 20186.7, 19984.7, 31218.8, 18720.6, 19658.7], [4373.5, 3121.9, 2688.7, 5228, 1671.2, 8297.2, 572.9, 0, 16180.2, 3005.4, 2307.6, 17347.5, 25273.3, 25166.2, 24836.1, 20660.7, 20458.7, 31692.8, 19293.5, 19085.9], [11806.6, 13058.3, 13491.5, 10952.1, 14737.5, 9642.2, 16330.2, 16180.2, 0, 17878.5, 13910.1, 7443, 15368.8, 15261.7, 14931.6, 11120.9, 10554.2, 21788.3, 32859.1, 26437.1], [6106.4, 4854.7, 4421.5, 6960.9, 3222.3, 10030.1, 2432.5, 3005.4, 17913, 0, 4040.4, 19080.3, 27006.1, 26899, 26568.9, 22393.5, 22191.5, 33425.6, 20269, 21897.4], [2103.4, 851.8, 418.6, 2957.9, 916.5, 6027.1, 2509.2, 2359.2, 13910.1, 4057.6, 0, 15077.4, 23003.2, 22896.1, 22566, 18390.6, 18188.6, 29422.6, 19038.1, 34071.4], [12945.1, 14196.8, 14629.9, 12090.6, 15875.9, 10780.7, 17468.7, 17318.6, 7443, 19017, 15048.5, 0, 7925.8, 7818.7, 7488.6, 3677.8, 3111.2, 14345.2, 33997.6, 18994], [20845.6, 22097.3, 22530.4, 19991.1, 23776.4, 18681.2, 25369.2, 25219.2, 15343.5, 26917.5, 22949, 7900.5, 0, 426.3, 1221.7, 6865, 5733, 6952.9, 41898.1, 11601.7], [20735.5, 21987.1, 22420.3, 19881, 23666.3, 18571.1, 25259, 25109, 15233.4, 26807.4, 22838.9, 7790.4, 426.3, 0, 1111.6, 6754.8, 5622.9, 6526.5, 41787.9, 11175.3], [20405.3, 21657, 22090.2, 19550.8, 23336.1, 18240.9, 24928.9, 24778.9, 14903.3, 26477.2, 22508.8, 7460.2, 1218.6, 1111.6, 0, 6424.7, 5292.8, 7638.1, 41457.8, 12286.9], [16622.9, 17874.6, 18307.8, 15768.4, 19553.7, 14458.5, 21146.5, 20996.5, 11120.9, 22694.8, 18726.3, 3677.8, 6873.1, 6766, 6435.9, 0, 1101.6, 13292.5, 37675.4, 17941.3], [16190.2, 17441.9, 17875, 15335.7, 19121, 14025.8, 20713.7, 20563.7, 10688.1, 22262.1, 18293.6, 3245.1, 5754.3, 5647.2, 5317.1, 1101.6, 0, 12173.8, 37242.6, 16822.6], [27262, 28513.7, 28946.8, 26407.5, 30192.8, 25097.6, 31785.6, 31635.5, 21759.9, 33333.9, 29365.4, 14316.9, 6952.9, 6526.5, 7638.1, 13281.4, 12149.4, 0, 28432.7, 4648.8], [21069.3, 19817.6, 19384.4, 21923.8, 18185.2, 24993, 18749, 19321.9, 32875.9, 20297.3, 19003.4, 34043.3, 41969, 41862, 41531.8, 37356.4, 37154.4, 28442.3, 0, 26307.6], [31903.3, 33154.9, 33588.1, 31048.8, 34834.1, 29738.9, 19742.9, 19170, 26401.2, 21981.5, 34006.7, 18958.2, 11594.1, 11167.8, 12279.3, 17922.6, 16790.7, 4641.3, 26290.5, 0]], "second_echelon_matrix": [[0, 15077.4, 23003.2, 22896.1, 22566, 18390.6, 18188.6, 29422.6, 19038.1, 34071.4, 2890.8, 7371.8, 2509, 2906.2, 334, 4524.8, 1428.2, 5855.7, 1452.4, 7396.2, 8874.9, 1405.5, 2590.5, 4794.1, 7426, 5855.7, 2890.8, 2148.3, 2861.5, 723.9, 8720.5, 2013.7, 1376.5, 9179.9, 3496.3, 5362.9, 5714.9, 1434.2, 3588.2, 2890.8], [15048.5, 0, 7925.8, 7818.7, 7488.6, 3677.8, 3111.2, 14345.2, 33997.6, 18994, 13389.2, 15175.1, 15862.5, 17865.6, 15182.8, 16051.7, 14032.9, 9441.1, 16411.8, 10740.4, 16678.2, 13643, 17549.9, 12597.4, 15229.3, 9441.1, 13389.2, 17107.7, 12187, 14324.6, 16523.8, 15367.1, 16335.9, 16983.2, 18455.7, 13166.2, 13587.8, 14038.9, 11460.3, 13389.2], [22949, 7900.5, 0, 426.3, 1221.7, 6865, 5733, 6952.9, 41898.1, 11601.7, 21289.7, 23075.6, 23763, 25766.1, 23083.3, 23952.2, 21933.4, 17341.6, 24312.3, 18640.9, 24578.7, 21543.5, 25450.4, 20497.9, 23129.8, 17341.6, 21289.7, 25008.2, 20087.5, 22225.1, 24424.3, 23267.6, 24236.4, 24883.7, 26356.2, 21066.7, 21488.3, 21939.4, 19360.8, 21289.7], [22838.9, 7790.4, 426.3, 0, 1111.6, 6754.8, 5622.9, 6526.5, 41787.9, 11175.3, 21179.6, 22965.4, 23652.8, 25656, 22973.1, 23842.1, 21823.2, 17231.5, 24202.2, 18530.8, 24468.6, 21433.4, 25340.3, 20387.8, 23019.6, 17231.5, 21179.6, 24898.1, 19977.4, 22115, 24314.2, 23157.5, 24126.3, 24773.5, 26246.1, 20956.5, 21378.2, 21829.2, 19250.7, 21179.6], [22508.8, 7460.2, 1218.6, 1111.6, 0, 6424.7, 5292.8, 7638.1, 41457.8, 12286.9, 20849.4, 22635.3, 23322.7, 25325.8, 22643, 23511.9, 21493.1, 16901.4, 23872, 18200.7, 24138.5, 21103.2, 25010.1, 20057.6, 22689.5, 16901.4, 20849.4, 24567.9, 19647.2, 21784.8, 23984.1, 22827.4, 23796.2, 24443.4, 25916, 20626.4, 21048, 21499.1, 18920.5, 20849.4], [18726.3, 3677.8, 6873.1, 6766, 6435.9, 0, 1101.6, 13292.5, 37675.4, 17941.3, 17067, 18852.9, 19540.3, 21543.4, 18860.6, 19729.5, 17710.7, 13119, 20089.6, 14418.2, 20356, 17320.8, 21227.7, 16275.2, 18907.1, 13119, 17067, 20785.5, 15864.8, 18002.4, 20201.6, 19044.9, 20013.8, 20661, 22133.5, 16844, 17265.6, 17716.7, 15138.1, 17067], [18293.6, 3245.1, 5754.3, 5647.2, 5317.1, 1101.6, 0, 12173.8, 37242.6, 16822.6, 16634.3, 18420.1, 19107.5, 21110.7, 18427.8, 19296.8, 17278, 12686.2, 19656.9, 13985.5, 19923.3, 16888.1, 20795, 15842.5, 18474.3, 12686.2, 16634.3, 20352.8, 15432.1, 17569.7, 19768.9, 18612.2, 19581, 20228.2, 21700.8, 16411.2, 16832.9, 17283.9, 14705.4, 16634.3], [29365.4, 14316.9, 6952.9, 6526.5, 7638.1, 13281.4, 12149.4, 0, 28432.7, 4648.8, 27706.1, 29492, 30179.4, 32182.5, 29499.7, 30368.6, 28349.8, 23758, 30728.7, 25057.3, 30995.1, 27959.9, 31866.8, 26914.3, 29546.2, 23758, 27706.1, 31424.6, 26503.9, 28641.5, 30840.7, 29684, 30652.8, 31300.1, 20704.1, 27483.1, 27904.7, 28355.8, 25777.2, 27706.1], [19003.4, 34043.3, 41969, 41862, 41531.8, 37356.4, 37154.4, 28442.3, 0, 26307.6, 21856.7, 26337.6, 21474.8, 19145.9, 19299.9, 23490.7, 20394.1, 24821.5, 17692.1, 26362.1, 27840.8, 20371.4, 18830.2, 23759.9, 26391.8, 24821.5, 21856.7, 18388, 21827.4, 19689.8, 27686.4, 20979.5, 19309, 28145.7, 19736.1, 24328.7, 24680.8, 20400.1, 22554.1, 21856.7], [34006.7, 18958.2, 11594.1, 11167.8, 12279.3, 17922.6, 16790.7, 4641.3, 26290.5, 0, 32347.3, 34133.2, 34820.6, 20830, 34140.9, 35009.8, 32991, 28399.3, 20645, 29698.6, 35636.4, 32601.2, 20514.4, 31555.5, 34187.4, 28399.3, 32347.3, 19974.5, 31145.2, 33282.8, 35482, 34325.3, 20204, 35941.3, 18561.9, 32124.3, 32546, 32997, 30418.4, 32347.3], [2890.8, 13418.1, 21343.8, 21236.8, 20906.6, 16731.2, 16529.2, 27763.3, 21839.9, 32412.1, 0, 3009.9, 3704.7, 5707.9, 3025.1, 3886.5, 1875.2, 4196.3, 4254.1, 3280.6, 4513.1, 1485.3, 5392.2, 1698.1, 3556.6, 4196.3, 0, 4950, 1202.2, 2166.9, 4358.7, 3209.4, 4178.2, 4818, 6298, 1934.8, 4055.6, 1881.2, 1928.9, 0], [7371.8, 15203.9, 23129.7, 23022.6, 22692.5, 18517.1, 18315.1, 29549.2, 26320.8, 34198, 3009.9, 0, 8185.7, 10188.8, 7506, 2131.1, 6356.1, 5982.2, 8735, 3442.3, 1922.2, 5966.2, 9873.2, 2606.4, 679.4, 5982.2, 3009.9, 9430.9, 4510.2, 6647.8, 1767.9, 7690.4, 8659.2, 2227.2, 10779, 2037.6, 5911, 6362.1, 3783.5, 3009.9], [2509, 15891.3, 23817.1, 23710, 23379.9, 19204.5, 19002.5, 30236.6, 21458, 34885.4, 3704.7, 8185.7, 0, 5326, 2643.2, 3975.3, 2242.2, 6669.6, 3872.3, 8210.2, 9688.9, 2219.5, 5010.4, 5608, 8239.9, 6669.6, 3704.7, 4568.2, 3675.5, 1785.1, 9534.5, 495.3, 3796.4, 9993.8, 5916.2, 6176.8, 6528.9, 2248.1, 4402.2, 3704.7], [2889, 17928.9, 25854.7, 25747.6, 25417.5, 21242.1, 21040.1, 32274.1, 19117.5, 20745.9, 5742.3, 10223.3, 5360.5, 0, 3185.5, 7376.4, 4279.7, 8707.2, 1493, 10247.7, 11726.4, 4257, 315.7, 7645.6, 10277.5, 8707.2, 5742.3, 920.1, 5713, 3575.4, 11572.1, 4865.2, 1841.1, 12031.4, 2268.2, 8214.4, 8566.4, 4285.7, 6439.7, 5742.3], [361, 15173.9, 23099.7, 22992.6, 22662.5, 18487.1, 18285.1, 29519.1, 19310, 34167.9, 2987.3, 7468.3, 2605.5, 3178, 0, 4621.4, 1524.7, 5952.2, 1724.2, 7492.7, 8971.4, 1502, 2862.4, 4890.6, 7522.5, 5952.2, 2987.3, 2420.2, 2958, 820.4, 8817, 2110.2, 1648.4, 9276.4, 3768.2, 5459.4, 5811.4, 1530.7, 3684.7, 2987.3], [4524.8, 16080.6, 24006.3, 23899.3, 23569.1, 19393.7, 19191.7, 30425.8, 23473.9, 35074.6, 3886.5, 2131.1, 3975.3, 7341.9, 4659.1, 0, 4258, 6858.8, 5888.1, 5239, 3634.2, 4235.3, 7026.2, 3656.5, 2677.7, 6858.8, 3886.5, 6584, 5386.9, 3800.9, 3479.8, 4470.6, 5812.3, 3939.2, 7932.1, 3893.2, 6787.7, 4264, 4660.2, 3886.5], [1442.5, 14020.9, 21946.7, 21839.6, 21509.5, 17334.1, 17132.1, 28366.1, 20391.5, 33014.9, 1834.3, 6315.3, 2256.4, 4259.6, 1576.7, 4272.3, 0, 4799.2, 2805.8, 6339.7, 7818.4, 349, 3943.9, 3737.6, 6369.5, 4799.2, 1834.3, 3501.7, 1805, 718.6, 7664, 1761.1, 2729.9, 8123.4, 4849.7, 4306.4, 4658.4, 6, 2531.7, 1834.3], [5855.7, 9470, 17395.8, 17288.7, 16958.6, 12783.2, 12581.2, 23815.2, 24804.7, 28464.1, 4196.3, 5982.2, 6669.6, 8672.7, 5989.9, 6858.8, 4840, 0, 7218.9, 1788.9, 7485.4, 4450.1, 8357, 3404.5, 6036.4, 0, 4196.3, 7914.8, 2994.1, 5131.7, 7331, 6174.3, 7143.1, 7790.3, 9262.9, 3973.3, 4394.9, 4846, 2267.4, 4196.3], [1396, 16435.9, 24361.7, 24254.6, 23924.5, 19749.1, 19547.1, 30781.1, 17624.5, 20606.5, 4249.3, 8730.3, 3867.5, 1538.6, 1692.5, 5883.4, 2786.7, 7214.2, 0, 8754.7, 10233.4, 2764, 1222.9, 6152.6, 8784.5, 7214.2, 4249.3, 780.7, 4220, 2082.4, 10079, 3372.2, 1701.6, 10538.4, 2128.7, 6721.4, 7073.4, 2792.7, 4946.7, 4249.3], [6708.6, 10769.3, 18695.1, 18588, 18257.9, 14082.5, 13880.5, 25114.5, 25657.7, 29763.4, 3280.6, 3442.3, 7522.6, 9525.7, 6842.9, 5440.6, 5693, 1788.9, 8071.9, 0, 5231.7, 5303.1, 9210, 1914.5, 3467.8, 1788.9, 3280.6, 8767.8, 3847.1, 5984.7, 5077.4, 7027.2, 7996, 5536.7, 10115.8, 1404.7, 5247.9, 5699, 3120.4, 3280.6], [8874.9, 16707.1, 24632.9, 24525.8, 24195.7, 20020.3, 19818.3, 31052.3, 27824, 35701.1, 4513.1, 1922.2, 9688.9, 11692, 9009.2, 3634.2, 7859.3, 7485.4, 10238.2, 5231.7, 0, 7469.4, 11376.3, 4283, 2468.9, 7485.4, 4513.1, 10934.1, 6013.4, 8151, 1901.5, 9193.5, 10162.3, 391.8, 12282.1, 3827, 7414.2, 7865.3, 5286.7, 4513.1], [1405.5, 13671.9, 21597.6, 21490.6, 21160.4, 16985.1, 16783, 28017.1, 20354.6, 32665.9, 1485.3, 5966.2, 2219.5, 4222.6, 1539.8, 4235.3, 389.9, 4450.1, 2768.8, 5990.7, 7469.4, 0, 3906.9, 3388.6, 6020.4, 4450.1, 1485.3, 3464.7, 1456, 681.6, 7315, 1724.1, 2692.9, 7774.3, 4812.7, 3957.3, 4309.4, 395.9, 2182.7, 1485.3], [2573.3, 17613.2, 25539, 25431.9, 25101.8, 20926.4, 20724.4, 31958.5, 18801.9, 20430.3, 5426.7, 9907.6, 5044.8, 315.7, 2869.8, 7060.7, 3964.1, 8391.5, 1177.3, 9932.1, 11410.8, 3941.4, 0, 7329.9, 9961.8, 8391.5, 5426.7, 604.5, 5397.4, 3259.8, 11256.4, 4549.5, 1525.4, 11715.7, 1952.5, 7898.7, 8250.8, 3970.1, 6124.1, 5426.7], [4794.1, 12626.3, 20552, 20445, 20114.8, 15939.4, 15737.4, 26971.5, 23743.1, 31620.3, 1698.1, 2606.4, 5608, 7611.1, 4928.3, 3656.5, 3778.4, 3404.5, 6157.4, 1914.5, 4283, 3388.6, 7295.5, 0, 2631.9, 3404.5, 1698.1, 6853.3, 1932.6, 4070.2, 4128.6, 5112.7, 6081.5, 4587.9, 8201.3, 568.8, 3333.4, 3784.4, 1205.9, 1698.1], [7426, 15258.1, 23183.9, 23076.8, 22746.7, 18571.3, 18369.3, 29603.4, 26375, 34252.2, 3556.6, 679.4, 8239.9, 10243, 7560.2, 2677.7, 6410.3, 6036.4, 8789.2, 3467.8, 2468.9, 6020.4, 9927.4, 2631.9, 0, 6036.4, 3556.6, 9485.1, 4564.4, 6702, 2314.5, 7744.6, 8713.4, 2773.8, 10833.2, 2063.1, 5965.2, 6416.3, 3837.7, 3556.6], [5855.7, 9470, 17395.8, 17288.7, 16958.6, 12783.2, 12581.2, 23815.2, 24804.7, 28464.1, 4196.3, 5982.2, 6669.6, 8672.7, 5989.9, 6858.8, 4840, 0, 7218.9, 1788.9, 7485.4, 4450.1, 8357, 3404.5, 6036.4, 0, 4196.3, 7914.8, 2994.1, 5131.7, 7331, 6174.3, 7143.1, 7790.3, 9262.9, 3973.3, 4394.9, 4846, 2267.4, 4196.3], [2890.8, 13418.1, 21343.8, 21236.8, 20906.6, 16731.2, 16529.2, 27763.3, 21839.9, 32412.1, 0, 3009.9, 3704.7, 5707.9, 3025.1, 3886.5, 1875.2, 4196.3, 4254.1, 3280.6, 4513.1, 1485.3, 5392.2, 1698.1, 3556.6, 4196.3, 0, 4950, 1202.2, 2166.9, 4358.7, 3209.4, 4178.2, 4818, 6298, 1934.8, 4055.6, 1881.2, 1928.9, 0], [2131.1, 17171, 25096.8, 24989.7, 24659.6, 20484.2, 20282.2, 31516.3, 18359.7, 19890.3, 4984.4, 9465.4, 4602.6, 920.1, 2427.6, 6618.5, 3521.8, 7949.3, 735.1, 9489.9, 10968.6, 3499.2, 604.5, 6887.7, 9519.6, 7949.3, 4984.4, 0, 4955.2, 2817.6, 10814.2, 4107.3, 1083.2, 11273.5, 1412.6, 7456.5, 7808.6, 3527.8, 5681.9, 4984.4], [2861.5, 12215.9, 20141.6, 20034.6, 19704.4, 15529, 15327, 26561.1, 21810.6, 31209.9, 1202.2, 4510.2, 3675.5, 5678.6, 2995.8, 5386.9, 1845.9, 2994.1, 4224.8, 4534.7, 6013.4, 1456, 5362.9, 1932.6, 4564.4, 2994.1, 1202.2, 4920.7, 0, 2137.6, 5859, 3180.1, 4148.9, 6318.3, 6268.7, 2501.3, 2853.4, 1851.9, 726.7, 1202.2], [723.9, 14353.5, 22279.2, 22172.2, 21842, 17666.7, 17464.6, 28698.7, 19673, 33347.5, 2166.9, 6647.8, 1785.1, 3541, 858.2, 3800.9, 704.3, 5131.7, 2087.2, 6672.3, 8151, 681.6, 3225.3, 4070.2, 6702, 5131.7, 2166.9, 2783.1, 2137.6, 0, 7996.6, 1289.7, 2011.3, 8455.9, 4131.1, 4638.9, 4991, 710.3, 2864.3, 2166.9], [8720.5, 16552.7, 24478.5, 24371.4, 24041.3, 19865.9, 19663.9, 30897.9, 27669.6, 35546.7, 4358.7, 1767.9, 9534.5, 11537.6, 8854.8, 3479.8, 7704.9, 7331, 10083.8, 5077.4, 1901.5, 7315, 11221.9, 4128.6, 2314.5, 7331, 4358.7, 10779.7, 5859, 7996.6, 0, 9039.1, 10008, 2206.5, 12127.7, 3672.7, 7259.8, 7710.9, 5132.3, 4358.7], [2013.7, 15396, 23321.8, 23214.7, 22884.6, 18709.2, 18507.2, 29741.2, 20962.7, 34390, 3209.4, 7690.4, 495.3, 4830.7, 2147.9, 4470.6, 1746.8, 6174.3, 3376.9, 7714.8, 9193.5, 1724.1, 4515, 5112.7, 7744.6, 6174.3, 3209.4, 4072.8, 3180.1, 1289.7, 9039.1, 0, 3301.1, 9498.5, 5420.9, 5681.5, 6033.5, 1752.8, 3906.8, 3209.4], [1324.9, 16364.8, 24290.6, 24183.5, 23853.4, 19678, 19476, 30710, 19280.6, 20119.9, 4178.2, 8659.2, 3796.4, 1841.1, 1621.4, 5812.3, 2715.6, 7143.1, 1656.1, 8683.6, 10162.3, 2692.9, 1525.4, 6081.5, 8713.4, 7143.1, 4178.2, 1083.2, 4148.9, 2011.3, 10008, 3301.1, 0, 10467.3, 2431.2, 6650.3, 7002.3, 2721.6, 4875.6, 4178.2], [9179.9, 17012, 24937.8, 24830.7, 24500.6, 20325.2, 20123.2, 31357.3, 28128.9, 36006.1, 4818, 2227.2, 9993.8, 11996.9, 9314.1, 3939.2, 8164.2, 7790.3, 10543.1, 5536.7, 391.8, 7774.3, 11681.3, 4587.9, 2773.8, 7790.3, 4818, 11239, 6318.3, 8455.9, 2206.5, 9498.5, 10467.3, 0, 12587.1, 4132, 7719.1, 8170.2, 5591.6, 4818], [3479.2, 18519.1, 26444.8, 26337.8, 26007.6, 21832.2, 21630.2, 20612.4, 19707.7, 18477.8, 6332.5, 10813.4, 5950.7, 2268.2, 3775.7, 7966.5, 4869.9, 9297.3, 2083.2, 10837.9, 12316.6, 4847.2, 1952.5, 8235.8, 10867.6, 9297.3, 6332.5, 1412.6, 6303.2, 4165.6, 12162.2, 5455.3, 2431.2, 12621.5, 0, 8804.5, 9156.6, 4875.9, 7029.9, 6332.5], [5362.9, 13195, 21120.8, 21013.7, 20683.6, 16508.2, 16306.2, 27540.3, 24311.9, 32189.1, 1934.8, 2037.6, 6176.8, 8179.9, 5497.1, 4035.9, 4347.2, 3973.3, 6726.1, 1404.7, 3827, 3957.3, 7864.2, 568.8, 2063.1, 3973.3, 1934.8, 7422, 2501.3, 4638.9, 3672.7, 5681.5, 6650.3, 4132, 8770.1, 0, 3902.1, 4353.2, 1774.6, 1934.8], [5714.9, 13616.7, 21542.4, 21435.4, 21105.2, 16929.9, 16727.8, 27961.9, 24664, 32610.7, 4055.6, 5911, 6528.9, 8532, 5849.2, 6787.7, 4699.3, 4394.9, 7078.2, 5935.5, 7414.2, 4309.4, 8216.3, 3333.4, 5965.2, 4394.9, 4055.6, 7774.1, 2853.4, 4991, 7259.8, 6033.5, 7002.3, 7719.1, 9122.1, 3902.1, 0, 4705.3, 2152.6, 4055.6], [1448.5, 14026.9, 21952.7, 21845.6, 21515.5, 17340.1, 17138.1, 28372.1, 20397.5, 33020.9, 1840.3, 6321.3, 2262.4, 4265.6, 1582.7, 4278.3, 6, 4805.2, 2811.8, 6345.7, 7824.4, 355, 3949.9, 3743.6, 6375.5, 4805.2, 1840.3, 3507.7, 1811, 724.6, 7670, 1767.1, 2735.9, 8129.4, 4855.7, 4312.4, 4664.4, 0, 2537.7, 1840.3], [3588.2, 11489.2, 19414.9, 19307.9, 18977.7, 14802.3, 14600.3, 25834.4, 22537.3, 30483.2, 1928.9, 3783.5, 4402.2, 6405.3, 3722.5, 4660.2, 2572.6, 2267.4, 4951.5, 3808, 5286.7, 2182.7, 6089.6, 1205.9, 3837.7, 2267.4, 1928.9, 5647.4, 726.7, 2864.3, 5132.3, 3906.8, 4875.6, 5591.6, 6995.4, 1774.6, 2152.6, 2578.6, 0, 1928.9], [2890.8, 13418.1, 21343.8, 21236.8, 20906.6, 16731.2, 16529.2, 27763.3, 21839.9, 32412.1, 0, 3009.9, 3704.7, 5707.9, 3025.1, 3886.5, 1875.2, 4196.3, 4254.1, 3280.6, 4513.1, 1485.3, 5392.2, 1698.1, 3556.6, 4196.3, 0, 4950, 1202.2, 2166.9, 4358.7, 3209.4, 4178.2, 4818, 6298, 1934.8, 4055.6, 1881.2, 1928.9, 0]]}