{"schools": [{"school_id": "50102324", "school_name": "SD NEGERI 3 TIHINGAN", "demand": 41, "latitude": -8.530082799999999, "longitude": 115.3831589, "lunch_time": 570, "cluster": 98}, {"school_id": "50102364", "school_name": "SMP NEGERI 2 BANJARANGKAN", "demand": 383, "latitude": -8.52141, "longitude": 115.37994, "lunch_time": 720, "cluster": 98}, {"school_id": "50102371", "school_name": "SD NEGERI MANDUANG", "demand": 100, "latitude": -8.515185899999999, "longitude": 115.3922777, "lunch_time": 570, "cluster": 98}, {"school_id": "50102400", "school_name": "SD NEGERI 1 TIHINGAN", "demand": 136, "latitude": -8.5359876, "longitude": 115.3832721, "lunch_time": 570, "cluster": 98}, {"school_id": "50102412", "school_name": "SD NEGERI 1 BAKAS", "demand": 94, "latitude": -8.5201875, "longitude": 115.365219, "lunch_time": 570, "cluster": 98}, {"school_id": "50102425", "school_name": "SD NEGERI 1 GETAKAN", "demand": 63, "latitude": -8.517765299999999, "longitude": 115.3754603, "lunch_time": 570, "cluster": 98}, {"school_id": "50102451", "school_name": "SD NEGERI 2 TIHINGAN", "demand": 56, "latitude": -8.5233659, "longitude": 115.3811264, "lunch_time": 570, "cluster": 98}, {"school_id": "50102462", "school_name": "SD NEGERI 2 BAKAS", "demand": 56, "latitude": -8.5214866, "longitude": 115.3592459, "lunch_time": 570, "cluster": 98}, {"school_id": "50102477", "school_name": "SD NEGERI 2 GETAKAN", "demand": 66, "latitude": -8.527431, "longitude": 115.3782958, "lunch_time": 570, "cluster": 98}, {"school_id": "69814402", "school_name": "TK NEGERI DESA BAKAS", "demand": 37, "latitude": -8.521331499999999, "longitude": 115.368006, "lunch_time": 480, "cluster": 98}], "kitchens": [{"kitchen_name": "Jajan bali Bolu Begina", "latitude": -8.4983115, "longitude": 115.3639226, "type": "buffet_restaurant"}, {"kitchen_name": "Kitchen 224 Klungkung", "latitude": -8.5395814, "longitude": 115.4053809, "type": "catering_service"}, {"kitchen_name": "SPPG Klungkung Klungkung Semarapura Tengah", "latitude": -8.498361899999999, "longitude": 115.3997958, "type": "sppg"}, {"kitchen_name": "Sekar Bali Catering", "latitude": -8.545789599999999, "longitude": 115.40869569999998, "type": "catering_service"}, {"kitchen_name": "Catering Cempaka Putih", "latitude": -8.492277399999999, "longitude": 115.402533, "type": "buffet_restaurant"}], "suppliers": [{"supplier_name": "Desa Wisata Guliang Kangin", "latitude": -8.5198074, "longitude": 115.3546051, "type": "butcher"}, {"supplier_name": "Wr. Ajik kompor", "latitude": -8.499828899999999, "longitude": 115.3690001, "type": "market"}, {"supplier_name": "Ayam Potong Pondok Damar", "latitude": -8.4962226, "longitude": 115.3695858, "type": "butcher"}, {"supplier_name": "Pasar Taman Bali", "latitude": -8.5014035, "longitude": 115.348728, "type": "market"}, {"supplier_name": "Babi Guling Jingga Konol", "latitude": -8.492060700000001, "longitude": 115.39631819999998, "type": "butcher"}], "first_echelon_matrix": [[0, 9356.3, 9716, 2212.6, 15971.2, 9590.1, 10314.5, 14937.6, 10092.5, 15267.7], [9356.3, 0, 436.8, 11568.8, 9602.7, 591.7, 11717, 8763.1, 11495.1, 9874.7], [9716, 436.8, 0, 11928.6, 9183, 900.5, 12076.8, 8343.4, 11854.8, 9455], [2212.6, 11568.8, 11928.6, 0, 18183.8, 11802.7, 12527.1, 17150.2, 12305.1, 17480.3], [16048.2, 9602.7, 9143.9, 18260.8, 0, 9785.5, 6326.4, 1109.7, 7458.3, 876.3], [9590.1, 591.7, 900.5, 11802.7, 9785.5, 0, 11950.8, 8946, 11728.9, 10057.5], [10416.6, 11819.1, 12178.8, 12629.2, 6350.7, 12052.9, 0, 5317.1, 1101.6, 5647.2], [15014.5, 8763.1, 8304.3, 17227.1, 1109.7, 8946, 5292.8, 0, 6424.7, 1111.6], [10107.3, 11509.8, 11869.5, 12319.8, 7469.5, 11743.6, 1101.6, 6435.9, 0, 6766], [15344.7, 9874.7, 9415.9, 17557.3, 876.3, 10057.5, 5622.9, 1111.6, 6754.8, 0]], "second_echelon_matrix": [[0, 11950.8, 8946, 11728.9, 10057.5, 6245.5, 5322.6, 7452.6, 6956.8, 2824.1, 4380.4, 5596.7, 3343.8, 5719.4, 3258.2], [12052.9, 0, 5317.1, 1101.6, 5647.2, 3321.5, 4380.6, 4395.3, 3495.9, 9228.8, 5252.8, 4142.7, 9696.4, 4068.8, 6786], [8946, 5292.8, 0, 6424.7, 1111.6, 7188.7, 8247.7, 2926.4, 7363.1, 13826.8, 9119.9, 8009.8, 14294.3, 7935.9, 10653.1], [11743.6, 1101.6, 6435.9, 0, 6766, 4243.7, 5302.7, 5514, 4418.1, 8919.5, 6174.9, 5064.8, 9387.1, 4990.9, 9103.4], [10057.5, 5622.9, 1111.6, 6754.8, 0, 7518.8, 8577.8, 4037.9, 7693.2, 14156.9, 9450, 8340, 14624.5, 8266.1, 10983.3], [6245.5, 3334, 7157.8, 4210.6, 7487.9, 0, 1059, 3976.7, 711.3, 3751.5, 1931.2, 821.2, 4436, 747.3, 3464.5], [5322.6, 4393, 8216.8, 5269.6, 8547, 1059, 0, 2930.9, 1770.3, 2828.6, 1008.3, 287.4, 3513.1, 1318.9, 2541.6], [7452.6, 4381.9, 2926.4, 5513.9, 4037.9, 3976.7, 2930.9, 0, 4444.4, 4958.6, 3138.4, 3205.1, 5643.1, 4236.6, 4671.6], [6956.8, 3513.7, 7337.5, 4390.3, 7667.7, 711.3, 1770.3, 4444.4, 0, 4462.8, 2642.5, 1532.5, 5147.3, 1458.6, 4175.8], [2824.1, 9126.7, 13749.8, 8904.8, 14079.9, 3751.5, 2828.6, 4958.6, 4462.8, 0, 1886.4, 3102.7, 787.7, 3225.4, 504], [4380.4, 5265.2, 9089, 6141.8, 9419.2, 1931.2, 1008.3, 3138.4, 2642.5, 1886.4, 0, 1282.5, 2571, 1405.2, 1599.4], [5596.7, 4155.1, 7979, 5031.8, 8309.1, 821.2, 287.4, 3205.1, 1532.5, 3102.7, 1282.5, 0, 3787.3, 1081.1, 2815.7], [3457.3, 9594.3, 14217.4, 9372.3, 14547.5, 4436, 3513.1, 5643.1, 5147.3, 787.7, 2571, 3787.3, 0, 3910, 971.6], [5719.4, 4081.3, 7905.1, 4957.9, 8235.2, 747.3, 1318.9, 4236.6, 1458.6, 3225.4, 1405.2, 1081.1, 3910, 0, 2938.4], [3258.2, 6798.4, 10622.3, 9088.7, 10952.4, 3464.5, 2541.6, 4671.6, 4175.8, 504, 1599.4, 2815.7, 971.6, 2938.4, 0]]}