{"schools": [{"school_id": "50102704", "school_name": "SD NEGERI 5 MUNCAN", "demand": 88, "latitude": -8.4148708, "longitude": 115.4467931, "lunch_time": 570, "cluster": 82, "service_time": 40.2}, {"school_id": "50102718", "school_name": "SD NEGERI 5 PERINGSARI", "demand": 55, "latitude": -8.4158835, "longitude": 115.4567448, "lunch_time": 570, "cluster": 82, "service_time": 27.0}, {"school_id": "50102749", "school_name": "SD NEGERI 4 MUNCAN", "demand": 121, "latitude": -8.4256615, "longitude": 115.4435273, "lunch_time": 570, "cluster": 82, "service_time": 53.4}, {"school_id": "50102804", "school_name": "SMP NEGERI 1 SELAT", "demand": 463, "latitude": -8.426772699999999, "longitude": 115.4436463, "lunch_time": 720, "cluster": 82, "service_time": 190.2}, {"school_id": "50102870", "school_name": "SD NEGERI 1 MUNCAN", "demand": 126, "latitude": -8.4281734, "longitude": 115.4440204, "lunch_time": 570, "cluster": 82, "service_time": 55.4}, {"school_id": "50102875", "school_name": "SD NEGERI 1 PERINGSARI", "demand": 111, "latitude": -8.421117100000002, "longitude": 115.4602184, "lunch_time": 570, "cluster": 82, "service_time": 49.4}, {"school_id": "50102975", "school_name": "SD NEGERI 3 MUNCAN", "demand": 88, "latitude": -8.435122699999999, "longitude": 115.4496812, "lunch_time": 570, "cluster": 82, "service_time": 40.2}, {"school_id": "50102996", "school_name": "SD NEGERI 2 MUNCAN", "demand": 77, "latitude": -8.421287, "longitude": 115.4475162, "lunch_time": 570, "cluster": 82, "service_time": 35.8}, {"school_id": "50103776", "school_name": "SD NEGERI 3 RENDANG", "demand": 82, "latitude": -8.428258, "longitude": 115.436723, "lunch_time": 570, "cluster": 82, "service_time": 37.8}, {"school_id": "50105104", "school_name": "TK NEGERI PEMBINA RENDANG", "demand": 166, "latitude": -8.4280942, "longitude": 115.4301599, "lunch_time": 480, "cluster": 82, "service_time": 71.4}], "kitchens": [{"kitchen_name": "Mahagiri Panoramic Resort & Restaurant", "latitude": -8.423208899999999, "longitude": 115.4282001, "type": "buffet_restaurant", "kitchen_id": "7e6aabe8-d6e0-4467-85cf-e4e45259ddd0", "capacity": 2000, "fixed_cost": 6000000, "maximum_vehicles": 2}, {"kitchen_name": "Ristorante Lereng Agung", "latitude": -8.4149596, "longitude": 115.4245207, "type": "buffet_restaurant", "kitchen_id": "b750cb19-2ac9-453b-8303-0346a99ab5e9", "capacity": 2000, "fixed_cost": 6000000, "maximum_vehicles": 2}, {"kitchen_name": "SPPG Karangasem Rendang Nongan", "latitude": -8.4349028, "longitude": 115.4157331, "type": "sppg", "kitchen_id": "dd5ecc20-b15b-4c4b-8e66-28eec88b7f1a", "capacity": 2000, "fixed_cost": 6000000, "maximum_vehicles": 2}, {"kitchen_name": "Jajanan LakLak Manohara", "latitude": -8.4472478, "longitude": 115.4118797, "type": "buffet_restaurant", "kitchen_id": "3c7bcae1-9e33-4000-bf8c-a0e526630500", "capacity": 2000, "fixed_cost": 6000000, "maximum_vehicles": 2}, {"kitchen_name": "SPPG Bangli Susut Demulih", "latitude": -8.4484028, "longitude": 115.3956225, "type": "sppg", "kitchen_id": "78d89dad-cfcf-4203-878a-85559df7cf46", "capacity": 2000, "fixed_cost": 6000000, "maximum_vehicles": 2}], "suppliers": [{"supplier_name": "Muncan Traditional Market", "latitude": -8.426667199999999, "longitude": 115.4449338, "type": "market", "ingredient": "vegetables"}, {"supplier_name": "Babi Guling (Yande) .Terima Pesanan.", "latitude": -8.4274098, "longitude": 115.445049, "type": "butcher", "ingredient": "meat"}, {"supplier_name": "Ayam panggang pak rabuk", "latitude": -8.4209592, "longitude": 115.4435601, "type": "butcher", "ingredient": "meat"}, {"supplier_name": "Jual Ayam Potong Pak Wira", "latitude": -8.4163633, "longitude": 115.4516856, "type": "butcher", "ingredient": "meat"}, {"supplier_name": "Pasar Burung Batusesa", "latitude": -8.4085678, "longitude": 115.4391177, "type": "market", "ingredient": "vegetables"}], "first_echelon_matrix": [[0.0, 0.2, 1.3, 3.7, 6.2, 7.7, 8.5, 8.7, 10.9, 16.1], [0.9, 0.0, 1.9, 4.3, 6.1, 7.5, 8.4, 8.6, 10.7, 16.0], [1.3, 1.5, 0.0, 4.6, 6.4, 7.9, 8.7, 8.9, 11.1, 16.3], [3.4, 3.5, 4.7, 0.0, 9.5, 10.9, 11.8, 12.0, 14.1, 19.4], [6.1, 6.4, 6.4, 9.5, 0.0, 8.3, 6.0, 9.3, 11.5, 16.7], [7.6, 7.8, 7.9, 11.0, 8.3, 0.0, 2.3, 4.8, 7.0, 12.2], [11.5, 11.7, 11.8, 14.9, 6.6, 2.3, 0.0, 5.2, 7.3, 12.6], [8.7, 8.9, 9.0, 12.0, 9.3, 4.8, 5.5, 0.0, 2.2, 7.4], [10.8, 11.0, 11.1, 14.2, 11.5, 7.0, 7.7, 2.2, 0.0, 5.3], [16.1, 16.3, 16.4, 19.5, 16.8, 12.2, 12.9, 7.4, 5.3, 0.0]], "second_echelon_matrix": [[0.0, 2.3, 4.8, 7.0, 12.2, 9.7, 12.0, 7.7, 7.4, 8.1, 10.8, 9.5, 8.7, 3.1, 2.0], [2.3, 0.0, 5.2, 7.3, 12.6, 13.6, 15.9, 11.6, 11.3, 12.0, 14.7, 13.4, 12.6, 7.0, 5.9], [4.8, 5.5, 0.0, 2.2, 7.4, 10.8, 13.0, 8.8, 8.5, 9.2, 11.9, 10.5, 9.7, 4.2, 3.1], [7.0, 7.7, 2.2, 0.0, 5.3, 12.9, 15.2, 10.9, 10.6, 11.3, 14.0, 12.7, 11.9, 6.3, 5.3], [12.2, 12.9, 7.4, 5.3, 0.0, 18.2, 20.4, 16.2, 15.9, 16.6, 19.3, 18.0, 17.2, 11.6, 10.5], [9.6, 10.5, 10.7, 12.8, 18.1, 0.0, 5.9, 2.5, 2.8, 2.5, 4.7, 3.8, 1.1, 6.5, 7.6], [11.9, 12.8, 12.9, 15.1, 20.4, 5.9, 0.0, 4.8, 5.1, 4.7, 1.2, 6.1, 4.8, 8.8, 9.9], [8.1, 8.9, 9.1, 11.3, 16.5, 2.5, 4.7, 0.0, 1.2, 0.9, 3.6, 2.3, 1.4, 4.9, 6.0], [7.9, 8.8, 8.9, 11.1, 16.4, 2.3, 4.6, 0.3, 0.0, 0.7, 3.4, 2.1, 1.3, 4.8, 5.8], [7.2, 8.0, 8.2, 10.4, 15.6, 2.6, 4.9, 0.6, 0.3, 0.0, 3.7, 2.4, 1.6, 4.0, 5.1], [10.7, 11.6, 11.8, 13.9, 19.2, 4.7, 1.2, 3.6, 3.9, 3.6, 0.0, 4.9, 3.7, 7.6, 8.7], [8.9, 9.8, 9.9, 12.1, 17.4, 4.4, 6.6, 2.4, 2.1, 1.7, 5.5, 0.0, 3.3, 5.8, 6.9], [8.6, 9.5, 9.6, 11.8, 17.1, 1.1, 4.8, 1.5, 1.8, 1.4, 3.7, 2.8, 0.0, 5.5, 6.6], [3.1, 4.0, 4.2, 6.3, 11.6, 6.6, 8.8, 4.6, 4.3, 5.0, 7.7, 6.4, 5.5, 0.0, 1.1], [2.0, 2.9, 3.1, 5.2, 10.5, 7.7, 9.9, 5.7, 5.4, 6.1, 8.7, 7.4, 6.6, 1.1, 0.0]], "ingredients": [{"name": "meat", "ratio_tray_to_kg": 0.1}, {"name": "vegetables", "ratio_tray_to_kg": 0.2}], "E1_vehicles": [{"capacity": 800, "variable_cost": 0.7, "fixed_cost": 100000}, {"capacity": 800, "variable_cost": 0.7, "fixed_cost": 100000}, {"capacity": 800, "variable_cost": 0.7, "fixed_cost": 100000}, {"capacity": 800, "variable_cost": 0.7, "fixed_cost": 100000}, {"capacity": 800, "variable_cost": 0.7, "fixed_cost": 100000}], "E2_vehicles": [{"capacity": 1000, "variable_cost": 0.8, "fixed_cost": 289000}, {"capacity": 1000, "variable_cost": 0.8, "fixed_cost": 289000}, {"capacity": 1000, "variable_cost": 0.8, "fixed_cost": 289000}, {"capacity": 1000, "variable_cost": 0.8, "fixed_cost": 289000}, {"capacity": 1000, "variable_cost": 0.8, "fixed_cost": 289000}, {"capacity": 1000, "variable_cost": 0.8, "fixed_cost": 289000}, {"capacity": 1000, "variable_cost": 0.8, "fixed_cost": 289000}, {"capacity": 1000, "variable_cost": 0.8, "fixed_cost": 289000}, {"capacity": 1000, "variable_cost": 0.8, "fixed_cost": 289000}, {"capacity": 1000, "variable_cost": 0.8, "fixed_cost": 289000}]}