{"schools": [{"school_id": "50102357", "school_name": "SMP NEGERI 3 SEMARAPURA", "demand": 730, "latitude": -8.5576779, "longitude": 115.405507, "lunch_time": 720, "cluster": 93}, {"school_id": "50102368", "school_name": "SD NEGERI SATRA", "demand": 105, "latitude": -8.556525599999999, "longitude": 115.3997674, "lunch_time": 570, "cluster": 93}, {"school_id": "50102410", "school_name": "SD NEGERI 1 KAMASAN", "demand": 503, "latitude": -8.5490248, "longitude": 115.4079414, "lunch_time": 570, "cluster": 93}, {"school_id": "50102419", "school_name": "MIN KLUNGKUNG", "demand": 333, "latitude": -8.5536544, "longitude": 115.4115783, "lunch_time": 570, "cluster": 93}, {"school_id": "50102423", "school_name": "SD NEGERI JUMPAI", "demand": 140, "latitude": -8.5714177, "longitude": 115.4190143, "lunch_time": 570, "cluster": 93}, {"school_id": "50102426", "school_name": "SD NEGERI 1 GELGEL", "demand": 255, "latitude": -8.5565949, "longitude": 115.4058634, "lunch_time": 570, "cluster": 93}, {"school_id": "50102465", "school_name": "SD NEGERI 1 TOJAN", "demand": 256, "latitude": -8.5519421, "longitude": 115.4024564, "lunch_time": 570, "cluster": 93}, {"school_id": "50104979", "school_name": "TK NEGERI DESA SATRA", "demand": 16, "latitude": -8.557566099999999, "longitude": 115.3987561, "lunch_time": 480, "cluster": 93}, {"school_id": "69892149", "school_name": "TK NEGERI DESA TOJAN", "demand": 40, "latitude": -8.557566099999999, "longitude": 115.3987561, "lunch_time": 480, "cluster": 93}, {"school_id": "69892152", "school_name": "TK NEGERI DESA JUMPAI", "demand": 29, "latitude": -8.5699189, "longitude": 115.4197477, "lunch_time": 480, "cluster": 93}], "kitchens": [{"kitchen_name": "Sekar Bali Catering", "latitude": -8.545789599999999, "longitude": 115.40869569999998, "type": "catering_service"}, {"kitchen_name": "Kitchen 224 Klungkung", "latitude": -8.5395814, "longitude": 115.4053809, "type": "catering_service"}, {"kitchen_name": "SPPG Klungkung Dawan Gunaksa", "latitude": -8.5450991, "longitude": 115.4205393, "type": "sppg"}, {"kitchen_name": "SPPG Klungkung Klungkung Semarapura Tengah", "latitude": -8.498361899999999, "longitude": 115.3997958, "type": "sppg"}, {"kitchen_name": "WR.ASTUNGKARA", "latitude": -8.493199299999999, "longitude": 115.4053159, "type": "catering_service"}], "suppliers": [{"supplier_name": "Desa Wisata Guliang Kangin", "latitude": -8.5198074, "longitude": 115.3546051, "type": "butcher"}, {"supplier_name": "Ayam panggang pak mang kecik", "latitude": -8.523981, "longitude": 115.4621806, "type": "butcher"}, {"supplier_name": "Babi guling pak kumis", "latitude": -8.4941228, "longitude": 115.4243477, "type": "butcher"}, {"supplier_name": "Babi Guling Jingga Konol", "latitude": -8.492060700000001, "longitude": 115.39631819999998, "type": "butcher"}, {"supplier_name": "Warung jimy cell", "latitude": -8.4976089, "longitude": 115.4410073, "type": "market"}], "first_echelon_matrix": [[0, 20042.4, 18004, 15971.2, 18444.3, 10092.5, 10314.5, 13281.2, 14937.6, 15374.8], [20761.9, 0, 17998.1, 15965.2, 15418.9, 11120.9, 10554.2, 7443, 14931.6, 15368.8], [18074.2, 17962.9, 0, 5414.5, 10831.5, 9484.3, 8352.4, 10519.9, 4380.8, 4818], [16048.2, 15936.9, 5410.7, 0, 13657, 7458.3, 6326.4, 8493.9, 1109.7, 1129.8], [18482, 15418.9, 10831.5, 13685.3, 0, 8841, 8274.3, 7975.8, 12651.7, 13088.9], [10107.3, 11120.9, 9502.3, 7469.5, 8841, 0, 1101.6, 3677.8, 6435.9, 6873.1], [10416.6, 10688.1, 8383.6, 6350.7, 8408.2, 1101.6, 0, 3245.1, 5317.1, 5754.3], [13318.9, 7443, 10555, 8522.2, 7975.8, 3677.8, 3111.2, 0, 7488.6, 7925.8], [15014.5, 14903.3, 4377, 1109.7, 12623.4, 6424.7, 5292.8, 7460.2, 0, 1218.6], [15454.8, 15343.5, 4817.3, 1129.8, 13063.6, 6865, 5733, 7900.5, 1221.7, 0]], "second_echelon_matrix": [[0, 1101.6, 3677.8, 6435.9, 6873.1, 1695.8, 2120, 366.5, 1534.2, 3553.1, 1337.3, 1432.4, 2340.9, 2340.9, 3517.8], [1101.6, 0, 3245.1, 5317.1, 5754.3, 2688.5, 2437.5, 1468.1, 2926.8, 4945.7, 2542.9, 1729.3, 2658.5, 2658.5, 4910.4], [3677.8, 3111.2, 0, 7488.6, 7925.8, 5705, 5454, 4044.3, 5694.9, 4993.1, 5559.4, 4745.8, 5675, 5675, 4682.4], [6424.7, 5292.8, 7460.2, 0, 1218.6, 7400.7, 7149.7, 6572.3, 7639, 9657.9, 7255.1, 6441.5, 7370.6, 7370.6, 9622.5], [6865, 5733, 7900.5, 1221.7, 0, 7840.9, 7590, 7012.5, 8079.2, 10098.2, 7695.4, 6881.7, 7810.9, 7810.9, 10062.8], [1682.2, 2640.2, 5756.8, 7413.2, 7850.4, 0, 1497.7, 1315.7, 1114.5, 3133.4, 174.5, 976.3, 1718.6, 1718.6, 3098], [2124.4, 2371.5, 5488.2, 7144.6, 7581.8, 1535.4, 0, 1757.9, 1773.7, 4049.8, 1389.8, 707.6, 220.9, 220.9, 4014.5], [366.5, 1468.1, 4044.3, 6567.7, 7004.9, 1329.3, 1753.5, 0, 1167.7, 3186.6, 970.8, 949.4, 1974.4, 1974.4, 3151.3], [1549.7, 2882.9, 5603.9, 7655.9, 8093.1, 1114.5, 1740.4, 1183.2, 0, 2342.6, 957.8, 1219, 1961.4, 1961.4, 2307.3], [3568.7, 4901.8, 4935.7, 9674.8, 10112, 3133.4, 4070.7, 3202.1, 2342.6, 0, 2976.7, 3237.9, 4177.7, 4177.7, 229], [1323, 2495.7, 5612.4, 7268.8, 7706, 174.5, 1353.3, 956.5, 972.3, 2991.2, 0, 831.8, 1574.2, 1574.2, 2955.9], [1432.4, 1663.9, 4780.6, 6436.9, 6874.1, 959.2, 708.2, 949.4, 1197.5, 3216.4, 813.6, 0, 929.2, 929.2, 3181.1], [2345.3, 2592.5, 5709.1, 7365.5, 7802.7, 961.3, 220.9, 1978.8, 1994.7, 4156.8, 1610.8, 928.6, 0, 0, 4121.5], [2345.3, 2592.5, 5709.1, 7365.5, 7802.7, 961.3, 220.9, 1978.8, 1994.7, 4156.8, 1610.8, 928.6, 0, 0, 4121.5], [3533.3, 4866.4, 4629.7, 9639.5, 10076.7, 3098, 4035.3, 3166.8, 2307.3, 229, 2941.3, 3202.5, 4142.3, 4142.3, 0]]}