{"schools": [{"school_id": "50102357", "school_name": "SMP NEGERI 3 SEMARAPURA", "demand": 730, "latitude": -8.5576779, "longitude": 115.405507, "lunch_time": 720, "cluster": 93, "service_time": 297.0}, {"school_id": "50102368", "school_name": "SD NEGERI SATRA", "demand": 105, "latitude": -8.556525599999999, "longitude": 115.3997674, "lunch_time": 570, "cluster": 93, "service_time": 47.0}, {"school_id": "50102410", "school_name": "SD NEGERI 1 KAMASAN", "demand": 503, "latitude": -8.5490248, "longitude": 115.4079414, "lunch_time": 570, "cluster": 93, "service_time": 206.2}, {"school_id": "50102419", "school_name": "MIN KLUNGKUNG", "demand": 333, "latitude": -8.5536544, "longitude": 115.4115783, "lunch_time": 570, "cluster": 93, "service_time": 138.2}, {"school_id": "50102423", "school_name": "SD NEGERI JUMPAI", "demand": 140, "latitude": -8.5714177, "longitude": 115.4190143, "lunch_time": 570, "cluster": 93, "service_time": 61.0}, {"school_id": "50102426", "school_name": "SD NEGERI 1 GELGEL", "demand": 255, "latitude": -8.5565949, "longitude": 115.4058634, "lunch_time": 570, "cluster": 93, "service_time": 107.0}, {"school_id": "50102465", "school_name": "SD NEGERI 1 TOJAN", "demand": 256, "latitude": -8.5519421, "longitude": 115.4024564, "lunch_time": 570, "cluster": 93, "service_time": 107.4}, {"school_id": "50104979", "school_name": "TK NEGERI DESA SATRA", "demand": 16, "latitude": -8.557566099999999, "longitude": 115.3987561, "lunch_time": 480, "cluster": 93, "service_time": 11.4}, {"school_id": "69892149", "school_name": "TK NEGERI DESA TOJAN", "demand": 40, "latitude": -8.557566099999999, "longitude": 115.3987561, "lunch_time": 480, "cluster": 93, "service_time": 21.0}, {"school_id": "69892152", "school_name": "TK NEGERI DESA JUMPAI", "demand": 29, "latitude": -8.5699189, "longitude": 115.4197477, "lunch_time": 480, "cluster": 93, "service_time": 16.6}], "kitchens": [{"kitchen_name": "Sekar Bali Catering", "latitude": -8.545789599999999, "longitude": 115.40869569999998, "type": "catering_service", "kitchen_id": "71dcfe46-7d95-462d-be11-77abe2360f31", "capacity": 2000, "fixed_cost": 6000000, "maximum_vehicles": 2}, {"kitchen_name": "Kitchen 224 Klungkung", "latitude": -8.5395814, "longitude": 115.4053809, "type": "catering_service", "kitchen_id": "a6798dd2-07bf-4b2b-8337-45f531b667c8", "capacity": 2000, "fixed_cost": 6000000, "maximum_vehicles": 2}, {"kitchen_name": "SPPG Klungkung Dawan Gunaksa", "latitude": -8.5450991, "longitude": 115.4205393, "type": "sppg", "kitchen_id": "3c613121-c672-4e7e-bf86-71ca8f748901", "capacity": 2000, "fixed_cost": 6000000, "maximum_vehicles": 2}, {"kitchen_name": "SPPG Klungkung Klungkung Semarapura Tengah", "latitude": -8.498361899999999, "longitude": 115.3997958, "type": "sppg", "kitchen_id": "ecf526e7-a60d-4a33-95f8-f42fe9e33ecf", "capacity": 2000, "fixed_cost": 6000000, "maximum_vehicles": 2}, {"kitchen_name": "WR.ASTUNGKARA", "latitude": -8.493199299999999, "longitude": 115.4053159, "type": "catering_service", "kitchen_id": "08bdf5c8-3008-49a9-8ab4-e1685b8095cc", "capacity": 2000, "fixed_cost": 6000000, "maximum_vehicles": 2}], "suppliers": [{"supplier_name": "Desa Wisata Guliang Kangin", "latitude": -8.5198074, "longitude": 115.3546051, "type": "butcher", "supplier_id": "931b5649-2c4b-4de0-8b44-6097dd6fe9d3", "ingredient": "meat"}, {"supplier_name": "Ayam panggang pak mang kecik", "latitude": -8.523981, "longitude": 115.4621806, "type": "butcher", "supplier_id": "a591cc7e-5324-498c-b8b7-9555fb145401", "ingredient": "meat"}, {"supplier_name": "Babi guling pak kumis", "latitude": -8.4941228, "longitude": 115.4243477, "type": "butcher", "supplier_id": "05540cc2-9bcf-4179-b8aa-b11c6a022aa5", "ingredient": "meat"}, {"supplier_name": "Babi Guling Jingga Konol", "latitude": -8.492060700000001, "longitude": 115.39631819999998, "type": "butcher", "supplier_id": "4547cd98-7e62-4272-ada1-93931483f1db", "ingredient": "meat"}, {"supplier_name": "Warung jimy cell", "latitude": -8.4976089, "longitude": 115.4410073, "type": "market", "supplier_id": "cb9e7ba9-cb23-414b-bc86-ef52ed34b335", "ingredient": "vegetables"}], "first_echelon_matrix": [[0.0, 30.1, 27.0, 24.0, 27.7, 15.1, 15.5, 19.9, 22.4, 23.1], [31.1, 0.0, 27.0, 23.9, 23.1, 16.7, 15.8, 11.2, 22.4, 23.1], [27.1, 26.9, 0.0, 8.1, 16.2, 14.2, 12.5, 15.8, 6.6, 7.2], [24.1, 23.9, 8.1, 0.0, 20.5, 11.2, 9.5, 12.7, 1.7, 1.7], [27.7, 23.1, 16.2, 20.5, 0.0, 13.3, 12.4, 12.0, 19.0, 19.6], [15.2, 16.7, 14.3, 11.2, 13.3, 0.0, 1.7, 5.5, 9.7, 10.3], [15.6, 16.0, 12.6, 9.5, 12.6, 1.7, 0.0, 4.9, 8.0, 8.6], [20.0, 11.2, 15.8, 12.8, 12.0, 5.5, 4.7, 0.0, 11.2, 11.9], [22.5, 22.4, 6.6, 1.7, 18.9, 9.6, 7.9, 11.2, 0.0, 1.8], [23.2, 23.0, 7.2, 1.7, 19.6, 10.3, 8.6, 11.9, 1.8, 0.0]], "second_echelon_matrix": [[0.0, 1.7, 5.5, 9.7, 10.3, 2.5, 3.2, 0.5, 2.3, 5.3, 2.0, 2.1, 3.5, 3.5, 5.3], [1.7, 0.0, 4.9, 8.0, 8.6, 4.0, 3.7, 2.2, 4.4, 7.4, 3.8, 2.6, 4.0, 4.0, 7.4], [5.5, 4.7, 0.0, 11.2, 11.9, 8.6, 8.2, 6.1, 8.5, 7.5, 8.3, 7.1, 8.5, 8.5, 7.0], [9.6, 7.9, 11.2, 0.0, 1.8, 11.1, 10.7, 9.9, 11.5, 14.5, 10.9, 9.7, 11.1, 11.1, 14.4], [10.3, 8.6, 11.9, 1.8, 0.0, 11.8, 11.4, 10.5, 12.1, 15.1, 11.5, 10.3, 11.7, 11.7, 15.1], [2.5, 4.0, 8.6, 11.1, 11.8, 0.0, 2.2, 2.0, 1.7, 4.7, 0.3, 1.5, 2.6, 2.6, 4.6], [3.2, 3.6, 8.2, 10.7, 11.4, 2.3, 0.0, 2.6, 2.7, 6.1, 2.1, 1.1, 0.3, 0.3, 6.0], [0.5, 2.2, 6.1, 9.9, 10.5, 2.0, 2.6, 0.0, 1.8, 4.8, 1.5, 1.4, 3.0, 3.0, 4.7], [2.3, 4.3, 8.4, 11.5, 12.1, 1.7, 2.6, 1.8, 0.0, 3.5, 1.4, 1.8, 2.9, 2.9, 3.5], [5.4, 7.4, 7.4, 14.5, 15.2, 4.7, 6.1, 4.8, 3.5, 0.0, 4.5, 4.9, 6.3, 6.3, 0.3], [2.0, 3.7, 8.4, 10.9, 11.6, 0.3, 2.0, 1.4, 1.5, 4.5, 0.0, 1.2, 2.4, 2.4, 4.4], [2.1, 2.5, 7.2, 9.7, 10.3, 1.4, 1.1, 1.4, 1.8, 4.8, 1.2, 0.0, 1.4, 1.4, 4.8], [3.5, 3.9, 8.6, 11.0, 11.7, 1.4, 0.3, 3.0, 3.0, 6.2, 2.4, 1.4, 0.0, 0.0, 6.2], [3.5, 3.9, 8.6, 11.0, 11.7, 1.4, 0.3, 3.0, 3.0, 6.2, 2.4, 1.4, 0.0, 0.0, 6.2], [5.3, 7.3, 6.9, 14.5, 15.1, 4.6, 6.1, 4.8, 3.5, 0.3, 4.4, 4.8, 6.2, 6.2, 0.0]], "ingredients": [{"name": "meat", "ratio_tray_to_kg": 0.1}, {"name": "vegetables", "ratio_tray_to_kg": 0.2}], "E1_vehicles": [{"capacity": 800, "variable_cost": 0.7, "fixed_cost": 100000, "vehicle_id": "d4353885-c4ed-48d5-bda8-a49a8c8ade79"}, {"capacity": 800, "variable_cost": 0.7, "fixed_cost": 100000, "vehicle_id": "d4353885-c4ed-48d5-bda8-a49a8c8ade79"}, {"capacity": 800, "variable_cost": 0.7, "fixed_cost": 100000, "vehicle_id": "d4353885-c4ed-48d5-bda8-a49a8c8ade79"}, {"capacity": 800, "variable_cost": 0.7, "fixed_cost": 100000, "vehicle_id": "d4353885-c4ed-48d5-bda8-a49a8c8ade79"}, {"capacity": 800, "variable_cost": 0.7, "fixed_cost": 100000, "vehicle_id": "d4353885-c4ed-48d5-bda8-a49a8c8ade79"}], "E2_vehicles": [{"capacity": 1000, "variable_cost": 0.8, "fixed_cost": 289000, "vehicle_id": "85728666-b767-4f68-ba6e-8b85f186e540"}, {"capacity": 1000, "variable_cost": 0.8, "fixed_cost": 289000, "vehicle_id": "85728666-b767-4f68-ba6e-8b85f186e540"}, {"capacity": 1000, "variable_cost": 0.8, "fixed_cost": 289000, "vehicle_id": "85728666-b767-4f68-ba6e-8b85f186e540"}, {"capacity": 1000, "variable_cost": 0.8, "fixed_cost": 289000, "vehicle_id": "85728666-b767-4f68-ba6e-8b85f186e540"}, {"capacity": 1000, "variable_cost": 0.8, "fixed_cost": 289000, "vehicle_id": "85728666-b767-4f68-ba6e-8b85f186e540"}, {"capacity": 1000, "variable_cost": 0.8, "fixed_cost": 289000, "vehicle_id": "85728666-b767-4f68-ba6e-8b85f186e540"}, {"capacity": 1000, "variable_cost": 0.8, "fixed_cost": 289000, "vehicle_id": "85728666-b767-4f68-ba6e-8b85f186e540"}, {"capacity": 1000, "variable_cost": 0.8, "fixed_cost": 289000, "vehicle_id": "85728666-b767-4f68-ba6e-8b85f186e540"}, {"capacity": 1000, "variable_cost": 0.8, "fixed_cost": 289000, "vehicle_id": "85728666-b767-4f68-ba6e-8b85f186e540"}, {"capacity": 1000, "variable_cost": 0.8, "fixed_cost": 289000, "vehicle_id": "85728666-b767-4f68-ba6e-8b85f186e540"}]}