{"schools": [{"school_id": "50102297", "school_name": "SD NEGERI 4 KUSAMBA", "demand": 162, "latitude": -8.560043499999999, "longitude": 115.4552466, "lunch_time": 570, "cluster": 63, "service_time": 69.8}, {"school_id": "50102318", "school_name": "SD NEGERI 3 KUSAMBA", "demand": 216, "latitude": -8.5615395, "longitude": 115.4457833, "lunch_time": 570, "cluster": 63, "service_time": 91.4}, {"school_id": "50102321", "school_name": "SD NEGERI 3 PESINGGAHAN", "demand": 70, "latitude": -8.5508983, "longitude": 115.4594583, "lunch_time": 570, "cluster": 63, "service_time": 33.0}, {"school_id": "50102359", "school_name": "SMP NEGERI 3 DAWAN", "demand": 299, "latitude": -8.547913, "longitude": 115.4605092, "lunch_time": 720, "cluster": 63, "service_time": 124.6}, {"school_id": "50102391", "school_name": "SD NEGERI 1 PESINGGAHAN", "demand": 107, "latitude": -8.5515897, "longitude": 115.4618126, "lunch_time": 570, "cluster": 63, "service_time": 47.8}, {"school_id": "50102409", "school_name": "SD NEGERI 1 KUSAMBA", "demand": 128, "latitude": -8.564473, "longitude": 115.4459803, "lunch_time": 570, "cluster": 63, "service_time": 56.2}, {"school_id": "50102441", "school_name": "SD NEGERI 2 PESINGGAHAN", "demand": 137, "latitude": -8.55294, "longitude": 115.46294, "lunch_time": 570, "cluster": 63, "service_time": 59.8}, {"school_id": "50102473", "school_name": "SD NEGERI 2 KUSAMBA", "demand": 68, "latitude": -8.559300499999999, "longitude": 115.4551832, "lunch_time": 570, "cluster": 63, "service_time": 32.2}, {"school_id": "50104968", "school_name": "TK NEGERI DESA KAMPUNG KUSAMBA", "demand": 61, "latitude": -8.5633996, "longitude": 115.4518837, "lunch_time": 480, "cluster": 63, "service_time": 29.4}, {"school_id": "50104982", "school_name": "TK NEGERI DESA PESINGGAHAN", "demand": 51, "latitude": -8.5516445, "longitude": 115.4625362, "lunch_time": 480, "cluster": 63, "service_time": 25.4}], "kitchens": [{"kitchen_name": "SPPG Klungkung Dawan Gunaksa", "latitude": -8.5450991, "longitude": 115.4205393, "type": "sppg", "kitchen_id": "717d7e43-3e9b-48aa-b60d-df7bbe56f1e2", "capacity": 2000, "fixed_cost": 6000000, "maximum_vehicles": 2}, {"kitchen_name": "Sekar Bali Catering", "latitude": -8.545789599999999, "longitude": 115.40869569999998, "type": "catering_service", "kitchen_id": "ba14d32e-87bd-4049-bc50-3991cd3bac54", "capacity": 2000, "fixed_cost": 6000000, "maximum_vehicles": 2}, {"kitchen_name": "Kitchen 224 Klungkung", "latitude": -8.5395814, "longitude": 115.4053809, "type": "catering_service", "kitchen_id": "8e553b47-db9a-4776-9a5f-75adfeb674f2", "capacity": 2000, "fixed_cost": 6000000, "maximum_vehicles": 2}, {"kitchen_name": "SPPG Klungkung Klungkung Semarapura Tengah", "latitude": -8.498361899999999, "longitude": 115.3997958, "type": "sppg", "kitchen_id": "cd2df465-fd35-40fb-b223-ff5cdf84e369", "capacity": 2000, "fixed_cost": 6000000, "maximum_vehicles": 2}, {"kitchen_name": "WR.ASTUNGKARA", "latitude": -8.493199299999999, "longitude": 115.4053159, "type": "catering_service", "kitchen_id": "07df0317-5f0b-4cb7-b554-cbf4dc8de4f7", "capacity": 2000, "fixed_cost": 6000000, "maximum_vehicles": 2}], "suppliers": [{"supplier_name": "Ayam panggang pak mang kecik", "latitude": -8.523981, "longitude": 115.4621806, "type": "butcher", "supplier_id": "b98926ed-26cf-450a-ac9c-23bbe7c1c024", "ingredient": "meat"}, {"supplier_name": "Dagang pesan sate lilit", "latitude": -8.5251909, "longitude": 115.4885335, "type": "butcher", "supplier_id": "124075c4-6161-48b2-a948-36e7ad653092", "ingredient": "meat"}, {"supplier_name": "Buk kinten babi guling", "latitude": -8.5146026, "longitude": 115.4976564, "type": "butcher", "supplier_id": "4d917cf6-c87f-46e6-97fb-fc78485e9a0a", "ingredient": "meat"}, {"supplier_name": "Pasar Telunwayah", "latitude": -8.496887599999999, "longitude": 115.4537639, "type": "market", "supplier_id": "418ef708-3b34-4acd-9ca8-ae4b827fe330", "ingredient": "vegetables"}, {"supplier_name": "Warung jimy cell", "latitude": -8.4976089, "longitude": 115.4410073, "type": "market", "supplier_id": "ffcbcba6-4029-4c83-8eec-56d70ab6eaf1", "ingredient": "vegetables"}], "first_echelon_matrix": [[0.0, 14.5, 16.4, 25.7, 23.1, 11.2, 16.7, 15.8, 22.4, 23.1], [14.5, 0.0, 4.6, 30.8, 28.2, 16.2, 21.2, 20.9, 27.4, 28.1], [16.4, 4.6, 0.0, 32.7, 30.1, 18.2, 23.1, 22.8, 29.4, 30.1], [25.7, 30.7, 32.7, 0.0, 2.6, 14.6, 15.9, 15.0, 21.6, 22.2], [23.1, 28.1, 30.1, 2.6, 0.0, 12.0, 13.3, 12.4, 19.0, 19.6], [11.2, 16.2, 18.1, 14.6, 12.0, 0.0, 5.5, 4.7, 11.2, 11.9], [16.7, 21.7, 23.7, 15.9, 13.3, 5.5, 0.0, 1.7, 9.7, 10.3], [16.0, 21.0, 23.0, 15.2, 12.6, 4.9, 1.7, 0.0, 8.0, 8.6], [22.4, 27.4, 29.3, 21.5, 18.9, 11.2, 9.6, 7.9, 0.0, 1.8], [23.0, 28.0, 30.0, 22.2, 19.6, 11.9, 10.3, 8.6, 1.8, 0.0]], "second_echelon_matrix": [[0.0, 5.5, 4.7, 11.2, 11.9, 8.0, 5.1, 8.8, 9.1, 8.3, 5.7, 7.9, 7.9, 6.4, 8.2], [5.5, 0.0, 1.7, 9.7, 10.3, 13.5, 10.7, 14.4, 14.6, 13.9, 11.2, 13.5, 13.4, 11.9, 13.7], [4.9, 1.7, 0.0, 8.0, 8.6, 12.9, 10.0, 13.7, 14.0, 13.2, 10.5, 12.8, 12.8, 11.2, 13.1], [11.2, 9.6, 7.9, 0.0, 1.8, 19.2, 16.3, 20.0, 20.3, 19.5, 16.9, 19.1, 19.1, 17.5, 19.4], [11.9, 10.3, 8.6, 1.8, 0.0, 19.9, 17.0, 20.7, 21.0, 20.2, 17.5, 19.8, 19.7, 18.2, 20.1], [8.0, 12.9, 12.6, 19.2, 19.8, 0.0, 1.8, 3.0, 3.2, 2.5, 2.2, 2.1, 0.1, 1.3, 2.4], [5.1, 10.1, 9.8, 16.4, 17.0, 1.8, 0.0, 4.5, 4.7, 4.0, 0.5, 3.6, 1.7, 1.2, 3.8], [8.9, 13.9, 13.6, 20.1, 20.8, 2.9, 4.4, 0.0, 1.4, 0.5, 4.9, 0.9, 2.8, 4.0, 0.6], [9.1, 14.1, 13.8, 20.4, 21.0, 3.2, 4.7, 1.6, 0.0, 1.1, 5.1, 1.2, 3.1, 4.2, 0.9], [8.4, 13.4, 13.0, 19.6, 20.3, 2.4, 3.9, 0.5, 1.1, 0.0, 4.4, 0.4, 2.3, 3.5, 0.1], [5.7, 10.6, 10.3, 16.9, 17.6, 2.2, 0.5, 4.9, 5.2, 4.4, 0.0, 4.0, 2.1, 1.7, 4.3], [8.0, 13.0, 12.7, 19.2, 19.9, 2.0, 3.5, 0.9, 1.2, 0.4, 4.0, 0.0, 1.9, 3.1, 0.3], [7.8, 12.8, 12.5, 19.1, 19.7, 0.1, 1.7, 2.9, 3.1, 2.4, 2.1, 2.0, 0.0, 1.2, 2.2], [6.3, 11.3, 11.0, 17.6, 18.2, 1.3, 1.2, 4.0, 4.3, 3.5, 1.7, 3.1, 1.2, 0.0, 3.4], [8.3, 13.2, 12.9, 19.5, 20.2, 2.3, 3.8, 0.6, 0.9, 0.1, 4.2, 0.3, 2.2, 3.3, 0.0]], "ingredients": [{"name": "meat", "ratio_tray_to_kg": 0.1}, {"name": "vegetables", "ratio_tray_to_kg": 0.2}], "E1_vehicles": [{"capacity": 800, "variable_cost": 0.7, "fixed_cost": 100000}, {"capacity": 800, "variable_cost": 0.7, "fixed_cost": 100000}, {"capacity": 800, "variable_cost": 0.7, "fixed_cost": 100000}, {"capacity": 800, "variable_cost": 0.7, "fixed_cost": 100000}, {"capacity": 800, "variable_cost": 0.7, "fixed_cost": 100000}], "E2_vehicles": [{"capacity": 1000, "variable_cost": 0.8, "fixed_cost": 289000}, {"capacity": 1000, "variable_cost": 0.8, "fixed_cost": 289000}, {"capacity": 1000, "variable_cost": 0.8, "fixed_cost": 289000}, {"capacity": 1000, "variable_cost": 0.8, "fixed_cost": 289000}, {"capacity": 1000, "variable_cost": 0.8, "fixed_cost": 289000}, {"capacity": 1000, "variable_cost": 0.8, "fixed_cost": 289000}, {"capacity": 1000, "variable_cost": 0.8, "fixed_cost": 289000}, {"capacity": 1000, "variable_cost": 0.8, "fixed_cost": 289000}, {"capacity": 1000, "variable_cost": 0.8, "fixed_cost": 289000}, {"capacity": 1000, "variable_cost": 0.8, "fixed_cost": 289000}]}