{"schools": [{"school_id": "50102752", "school_name": "SD NEGERI 4 PERINGSARI", "demand": 94, "latitude": -8.4374317, "longitude": 115.4654597, "lunch_time": 570, "cluster": 71, "service_time": 42.6}, {"school_id": "50102764", "school_name": "SD NEGERI 4 DUDA UTARA", "demand": 72, "latitude": -8.4304977, "longitude": 115.491897, "lunch_time": 570, "cluster": 71, "service_time": 33.8}, {"school_id": "50102781", "school_name": "SMAN 1 SELAT", "demand": 704, "latitude": -8.4431801, "longitude": 115.4853134, "lunch_time": 720, "cluster": 71, "service_time": 286.6}, {"school_id": "50102856", "school_name": "SD NEGERI 2 AMERTA BHUANA", "demand": 115, "latitude": -8.4189905, "longitude": 115.4895996, "lunch_time": 570, "cluster": 71, "service_time": 51.0}, {"school_id": "50102859", "school_name": "SD NEGERI 1 SELAT", "demand": 128, "latitude": -8.4367539, "longitude": 115.4768002, "lunch_time": 570, "cluster": 71, "service_time": 56.2}, {"school_id": "50102970", "school_name": "SD NEGERI 3 PERINGSARI", "demand": 120, "latitude": -8.429305500000002, "longitude": 115.4718507, "lunch_time": 570, "cluster": 71, "service_time": 53.0}, {"school_id": "50103027", "school_name": "SD NEGERI 2 PERINGSARI", "demand": 157, "latitude": -8.4358138, "longitude": 115.4724199, "lunch_time": 570, "cluster": 71, "service_time": 67.8}, {"school_id": "50103032", "school_name": "SD NEGERI 2 SEBUDI", "demand": 157, "latitude": -8.4090069, "longitude": 115.4838985, "lunch_time": 570, "cluster": 71, "service_time": 67.8}, {"school_id": "50103662", "school_name": "SMP NEGERI 2 SELAT", "demand": 791, "latitude": -8.434529999999999, "longitude": 115.46759, "lunch_time": 720, "cluster": 71, "service_time": 321.4}, {"school_id": "50103765", "school_name": "SD NEGERI 1 AMERTA BHUANA", "demand": 98, "latitude": -8.4279048, "longitude": 115.4772765, "lunch_time": 570, "cluster": 71, "service_time": 44.2}], "kitchens": [{"kitchen_name": "Mahagiri Panoramic Resort & Restaurant", "latitude": -8.423208899999999, "longitude": 115.4282001, "type": "buffet_restaurant", "kitchen_id": "c1f7b1ff-47c2-4630-bee2-6e59857148fd", "capacity": 2000, "fixed_cost": 6000000, "maximum_vehicles": 2}, {"kitchen_name": "Ristorante Lereng Agung", "latitude": -8.4149596, "longitude": 115.4245207, "type": "buffet_restaurant", "kitchen_id": "13486c49-db09-4574-8ff6-80d8a1327afd", "capacity": 2000, "fixed_cost": 6000000, "maximum_vehicles": 2}, {"kitchen_name": "SPPG Karangasem Rendang Nongan", "latitude": -8.4349028, "longitude": 115.4157331, "type": "sppg", "kitchen_id": "f9a9e134-2924-4be5-b6dd-a2f953e4ba49", "capacity": 2000, "fixed_cost": 6000000, "maximum_vehicles": 2}, {"kitchen_name": "Jajanan LakLak Manohara", "latitude": -8.4472478, "longitude": 115.4118797, "type": "buffet_restaurant", "kitchen_id": "643a4e1b-a05e-445b-b084-2c96c61a95ea", "capacity": 2000, "fixed_cost": 6000000, "maximum_vehicles": 2}, {"kitchen_name": "SPPG Karangasem Manggis Ulakan", "latitude": -8.4976966, "longitude": 115.5141475, "type": "sppg", "kitchen_id": "4acd765d-0895-4777-89be-7f376fdad43c", "capacity": 2000, "fixed_cost": 6000000, "maximum_vehicles": 2}], "suppliers": [{"supplier_name": "Ona rahayu", "latitude": -8.4272982, "longitude": 115.4842848, "type": "butcher", "supplier_id": "c5929594-1c9b-4c05-80b1-8c1512b974a1", "ingredient": "meat"}, {"supplier_name": "Pukis Sindu", "latitude": -8.4360625, "longitude": 115.4744375, "type": "market", "supplier_id": "f4e498b8-dd41-4ce7-b4c4-5c0e95de2569", "ingredient": "vegetables"}, {"supplier_name": "Pasar Selat, Karangasem", "latitude": -8.4363881, "longitude": 115.4743958, "type": "market", "supplier_id": "540b9e15-14fb-48c6-ade8-44886987c3ca", "ingredient": "vegetables"}, {"supplier_name": "Sari ayam Arta mani do", "latitude": -8.4349682, "longitude": 115.46299349999998, "type": "butcher", "supplier_id": "de53da2d-c9c4-4b67-bf7a-cbc017ee0380", "ingredient": "meat"}, {"supplier_name": "Warung dek nova", "latitude": -8.4110142, "longitude": 115.4707413, "type": "market", "supplier_id": "790e5f66-5013-46e0-ab71-033b949a5c5c", "ingredient": "vegetables"}], "first_echelon_matrix": [[0.0, 3.4, 2.9, 5.4, 7.2, 17.0, 17.8, 18.0, 20.2, 22.0], [2.9, 0.0, 0.1, 2.5, 6.5, 14.1, 15.0, 15.2, 17.3, 19.1], [3.4, 0.5, 0.0, 2.4, 6.4, 14.0, 14.9, 15.1, 17.2, 19.0], [5.2, 2.3, 2.4, 0.0, 5.1, 12.7, 13.6, 13.8, 15.9, 21.4], [7.2, 6.2, 6.3, 5.1, 0.0, 14.0, 14.9, 15.1, 17.2, 25.4], [16.9, 14.0, 14.0, 12.8, 14.1, 0.0, 2.3, 4.8, 7.0, 51.0], [20.8, 17.9, 17.9, 16.7, 18.0, 2.3, 0.0, 5.2, 7.3, 51.4], [17.9, 15.0, 15.1, 13.9, 15.2, 4.8, 5.5, 0.0, 2.2, 46.2], [20.1, 17.2, 17.2, 16.0, 17.3, 7.0, 7.7, 2.2, 0.0, 44.0], [22.3, 19.4, 19.5, 21.4, 25.3, 51.1, 51.8, 46.3, 44.1, 0.0]], "second_echelon_matrix": [[0.0, 2.3, 4.8, 7.0, 51.0, 13.2, 18.3, 16.5, 18.8, 14.5, 14.4, 13.6, 18.8, 12.8, 15.4], [2.3, 0.0, 5.2, 7.3, 51.4, 17.1, 22.2, 20.4, 22.7, 18.4, 18.3, 17.5, 22.7, 16.7, 19.3], [4.8, 5.5, 0.0, 2.2, 46.2, 14.3, 19.4, 17.6, 19.9, 15.5, 15.4, 14.7, 19.9, 13.8, 16.5], [7.0, 7.7, 2.2, 0.0, 44.0, 16.4, 21.5, 19.7, 22.0, 17.7, 17.6, 16.8, 22.0, 16.0, 18.6], [51.1, 51.8, 46.3, 44.1, 0.0, 20.9, 18.9, 17.1, 21.8, 18.6, 20.8, 19.4, 24.3, 20.2, 20.9], [13.1, 14.0, 14.2, 16.3, 21.0, 0.0, 6.2, 4.4, 6.7, 2.4, 2.3, 1.5, 6.7, 1.5, 3.3], [18.2, 19.0, 19.2, 21.4, 18.8, 6.1, 0.0, 4.1, 2.9, 3.8, 6.1, 4.6, 6.1, 5.5, 3.4], [16.4, 17.2, 17.4, 19.6, 17.0, 4.3, 4.1, 0.0, 5.2, 2.0, 4.2, 2.8, 7.7, 3.6, 4.3], [18.9, 19.7, 19.9, 22.1, 21.8, 6.8, 2.9, 5.2, 0.0, 5.3, 5.0, 5.3, 6.1, 6.2, 3.4], [14.4, 15.2, 15.4, 17.6, 18.6, 2.3, 3.8, 2.0, 5.7, 0.0, 2.2, 0.8, 5.7, 1.6, 2.3], [14.3, 15.2, 15.3, 17.5, 20.9, 2.3, 6.1, 4.3, 5.0, 2.3, 0.0, 1.4, 5.0, 1.6, 1.6], [13.5, 14.4, 14.6, 16.8, 19.4, 1.5, 4.7, 2.9, 5.2, 0.9, 1.4, 0.0, 5.2, 0.8, 1.8], [18.9, 19.8, 20.0, 22.1, 23.9, 6.9, 6.1, 7.3, 6.1, 5.3, 5.0, 5.4, 0.0, 6.2, 3.4], [12.7, 13.6, 13.8, 15.9, 20.3, 1.2, 5.5, 3.7, 6.0, 1.7, 1.6, 0.8, 6.0, 0.0, 2.6], [15.5, 16.4, 16.6, 18.7, 20.5, 3.5, 3.4, 4.0, 3.4, 1.9, 1.6, 2.0, 3.4, 2.8, 0.0]], "ingredients": [{"name": "meat", "ratio_tray_to_kg": 0.1}, {"name": "vegetables", "ratio_tray_to_kg": 0.2}], "E1_vehicles": [{"capacity": 800, "variable_cost": 0.7, "fixed_cost": 100000}, {"capacity": 800, "variable_cost": 0.7, "fixed_cost": 100000}, {"capacity": 800, "variable_cost": 0.7, "fixed_cost": 100000}, {"capacity": 800, "variable_cost": 0.7, "fixed_cost": 100000}, {"capacity": 800, "variable_cost": 0.7, "fixed_cost": 100000}], "E2_vehicles": [{"capacity": 1000, "variable_cost": 0.8, "fixed_cost": 289000}, {"capacity": 1000, "variable_cost": 0.8, "fixed_cost": 289000}, {"capacity": 1000, "variable_cost": 0.8, "fixed_cost": 289000}, {"capacity": 1000, "variable_cost": 0.8, "fixed_cost": 289000}, {"capacity": 1000, "variable_cost": 0.8, "fixed_cost": 289000}, {"capacity": 1000, "variable_cost": 0.8, "fixed_cost": 289000}, {"capacity": 1000, "variable_cost": 0.8, "fixed_cost": 289000}, {"capacity": 1000, "variable_cost": 0.8, "fixed_cost": 289000}, {"capacity": 1000, "variable_cost": 0.8, "fixed_cost": 289000}, {"capacity": 1000, "variable_cost": 0.8, "fixed_cost": 289000}]}